Boulder.csv

"Access","Start Time (UTCG)","Stop Time (UTCG)","Duration (sec)"
1,14 Oct 2016 00:47:45.155,14 Oct 2016 00:53:30.586,345.432
2,14 Oct 2016 10:23:44.792,14 Oct 2016 10:28:59.883,315.091
3,14 Oct 2016 12:01:18.129,14 Oct 2016 12:11:38.754,620.625
4,15 Oct 2016 00:19:05.880,15 Oct 2016 00:21:46.203,160.323
5,15 Oct 2016 11:27:46.910,15 Oct 2016 11:38:08.404,621.494
6,15 Oct 2016 13:11:49.662,15 Oct 2016 13:15:10.097,200.435
7,16 Oct 2016 10:54:48.731,16 Oct 2016 11:04:19.166,570.436
8,16 Oct 2016 12:36:11.399,16 Oct 2016 12:44:32.256,500.858
9,17 Oct 2016 10:22:32.097,17 Oct 2016 10:30:02.750,450.653
10,17 Oct 2016 12:01:41.801,17 Oct 2016 12:11:36.755,594.954
11,18 Oct 2016 00:14:40.004,18 Oct 2016 00:20:58.961,378.957
12,18 Oct 2016 09:51:58.593,18 Oct 2016 09:54:18.297,139.703
13,18 Oct 2016 11:27:50.700,18 Oct 2016 11:38:17.637,626.937
14,19 Oct 2016 10:54:32.212,19 Oct 2016 11:04:40.165,607.953
15,19 Oct 2016 12:37:22.417,19 Oct 2016 12:43:57.958,395.540
16,20 Oct 2016 10:21:48.614,20 Oct 2016 10:30:41.977,533.363
17,20 Oct 2016 12:02:19.288,20 Oct 2016 12:11:26.423,547.135
18,21 Oct 2016 00:14:56.108,21 Oct 2016 00:19:38.239,282.130
19,21 Oct 2016 09:49:55.972,21 Oct 2016 09:56:07.432,371.460
20,21 Oct 2016 11:30:03.426,21 Oct 2016 11:38:20.305,496.879
21,22 Oct 2016 10:58:59.543,22 Oct 2016 11:04:53.799,354.256
22,22 Oct 2016 12:39:35.282,22 Oct 2016 12:42:38.276,182.993
23,23 Oct 2016 10:27:04.916,23 Oct 2016 10:31:08.870,243.955
24,23 Oct 2016 12:07:38.606,23 Oct 2016 12:11:04.290,205.684
25,24 Oct 2016 09:54:48.679,24 Oct 2016 09:56:59.717,131.038
26,24 Oct 2016 11:35:21.248,24 Oct 2016 11:38:15.720,174.473
27,25 Oct 2016 11:02:51.320,25 Oct 2016 11:05:00.847,129.527
28,26 Oct 2016 10:30:12.698,26 Oct 2016 10:31:27.232,74.534
29,27 Oct 2016 09:57:27.612,27 Oct 2016 09:57:34.047,6.435
30,27 Oct 2016 11:37:58.471,27 Oct 2016 11:38:01.929,3.458
31,3 Jan 2017 14:14:42.680,3 Jan 2017 14:18:15.615,212.934
32,6 Jan 2017 14:13:29.172,6 Jan 2017 14:20:12.985,403.814
33,9 Jan 2017 14:12:56.893,9 Jan 2017 14:21:22.898,506.004
34,10 Jan 2017 13:40:50.373,10 Jan 2017 13:45:49.268,298.894
35,12 Jan 2017 14:12:40.835,12 Jan 2017 14:22:10.761,569.926
36,13 Jan 2017 13:39:57.957,13 Jan 2017 13:47:23.415,445.459
37,14 Jan 2017 13:09:11.820,14 Jan 2017 13:10:22.588,70.768
38,15 Jan 2017 14:12:34.842,15 Jan 2017 14:22:43.023,608.181
39,16 Jan 2017 13:39:32.546,16 Jan 2017 13:48:24.499,531.952
40,17 Jan 2017 13:07:09.633,17 Jan 2017 13:13:10.826,361.193
41,18 Jan 2017 14:12:36.496,18 Jan 2017 14:22:49.850,613.354
42,19 Jan 2017 13:39:20.460,19 Jan 2017 13:49:06.536,586.076
43,20 Jan 2017 02:35:02.932,20 Jan 2017 02:35:47.301,44.369
44,20 Jan 2017 13:06:29.765,20 Jan 2017 13:14:30.380,480.615
45,21 Jan 2017 02:01:53.010,21 Jan 2017 02:03:52.307,119.297
46,21 Jan 2017 03:44:04.660,21 Jan 2017 03:44:27.514,22.855
47,21 Jan 2017 12:34:44.503,21 Jan 2017 12:38:32.423,227.920
48,21 Jan 2017 14:12:44.866,21 Jan 2017 14:21:07.238,502.372
49,22 Jan 2017 01:29:20.021,22 Jan 2017 01:32:14.760,174.739
50,22 Jan 2017 03:09:17.572,22 Jan 2017 03:12:51.609,214.037
51,22 Jan 2017 13:39:17.358,22 Jan 2017 13:49:34.148,616.789
52,23 Jan 2017 00:57:49.114,23 Jan 2017 01:01:11.192,202.077
53,23 Jan 2017 02:35:14.393,23 Jan 2017 02:41:52.103,397.710
54,23 Jan 2017 13:06:09.846,23 Jan 2017 13:15:24.049,554.203
55,24 Jan 2017 02:01:44.795,24 Jan 2017 02:12:05.443,620.648
56,24 Jan 2017 03:45:38.609,24 Jan 2017 03:50:38.947,300.338
57,24 Jan 2017 12:33:35.041,24 Jan 2017 12:40:25.775,410.733
58,24 Jan 2017 14:12:59.920,24 Jan 2017 14:19:06.748,366.829
59,25 Jan 2017 01:28:48.359,25 Jan 2017 01:38:15.571,567.211
60,25 Jan 2017 03:10:05.456,25 Jan 2017 03:18:32.074,506.618
61,25 Jan 2017 13:39:21.450,25 Jan 2017 13:49:49.304,627.854
62,26 Jan 2017 00:56:34.178,26 Jan 2017 01:03:57.834,443.656
63,26 Jan 2017 02:35:38.031,26 Jan 2017 02:45:35.556,597.525
64,26 Jan 2017 13:06:01.263,26 Jan 2017 13:16:00.778,599.515
65,27 Jan 2017 00:26:15.906,27 Jan 2017 00:27:59.316,103.410
66,27 Jan 2017 02:01:48.611,27 Jan 2017 02:12:15.874,627.263
67,27 Jan 2017 12:33:03.955,27 Jan 2017 12:41:34.550,510.595
68,27 Jan 2017 14:13:22.563,27 Jan 2017 14:16:49.097,206.534
69,28 Jan 2017 01:28:31.737,28 Jan 2017 01:38:37.888,606.151
70,28 Jan 2017 03:11:15.394,28 Jan 2017 03:18:00.045,404.651
71,28 Jan 2017 12:00:54.601,28 Jan 2017 12:06:04.344,309.743
72,28 Jan 2017 13:39:32.161,28 Jan 2017 13:49:52.694,620.533
73,29 Jan 2017 00:55:50.027,29 Jan 2017 01:04:38.915,528.888
74,29 Jan 2017 02:36:15.354,29 Jan 2017 02:45:26.603,551.249
75,29 Jan 2017 13:06:00.858,29 Jan 2017 13:16:23.961,623.102
76,30 Jan 2017 00:24:00.685,30 Jan 2017 00:30:02.199,361.514
77,30 Jan 2017 02:02:04.248,30 Jan 2017 02:12:19.740,615.492
78,30 Jan 2017 12:32:48.622,30 Jan 2017 12:42:21.770,573.148
79,30 Jan 2017 14:13:55.124,30 Jan 2017 14:14:15.034,19.910
80,31 Jan 2017 01:28:27.830,31 Jan 2017 01:38:52.733,624.903
81,31 Jan 2017 03:13:12.509,31 Jan 2017 03:16:47.152,214.644
82,31 Jan 2017 12:00:04.523,31 Jan 2017 12:07:36.222,451.699
83,31 Jan 2017 13:39:49.768,31 Jan 2017 13:49:44.074,594.306
84,1 Feb 2017 00:55:24.041,1 Feb 2017 01:05:07.238,583.197
85,1 Feb 2017 02:37:09.888,1 Feb 2017 02:45:06.160,476.271
86,1 Feb 2017 11:29:01.210,1 Feb 2017 11:30:53.194,111.983
87,1 Feb 2017 13:06:07.344,1 Feb 2017 13:16:35.045,627.702
88,2 Feb 2017 00:22:59.265,2 Feb 2017 00:30:57.025,477.760
89,2 Feb 2017 02:02:32.446,2 Feb 2017 02:12:16.414,583.969
90,2 Feb 2017 12:32:43.192,2 Feb 2017 12:42:53.572,610.381
91,3 Feb 2017 01:28:35.765,3 Feb 2017 01:39:00.949,625.184
92,3 Feb 2017 11:59:40.133,3 Feb 2017 12:08:36.364,536.231
93,3 Feb 2017 13:40:15.551,3 Feb 2017 13:49:22.109,546.557
94,4 Feb 2017 00:55:12.049,4 Feb 2017 01:05:26.847,614.798
95,4 Feb 2017 02:38:31.039,4 Feb 2017 02:44:25.154,354.114
96,4 Feb 2017 11:27:15.224,4 Feb 2017 11:33:25.285,370.062
97,4 Feb 2017 13:06:20.447,4 Feb 2017 13:16:34.375,613.928
98,5 Feb 2017 00:22:22.226,5 Feb 2017 00:31:32.994,550.768
99,5 Feb 2017 02:03:15.240,5 Feb 2017 02:12:04.045,528.805
100,5 Feb 2017 12:32:45.341,5 Feb 2017 12:43:12.486,627.145
101,6 Feb 2017 01:28:55.671,6 Feb 2017 01:39:02.496,606.825
102,6 Feb 2017 11:59:28.738,6 Feb 2017 12:09:17.810,589.071
103,6 Feb 2017 13:40:52.689,6 Feb 2017 13:48:43.524,470.835
104,7 Feb 2017 00:55:12.336,7 Feb 2017 01:05:39.405,627.069
105,7 Feb 2017 11:26:37.030,7 Feb 2017 11:34:43.243,486.213
106,7 Feb 2017 13:06:40.755,7 Feb 2017 13:16:21.367,580.611
107,8 Feb 2017 00:24:44.583,8 Feb 2017 00:31:58.053,433.470
108,8 Feb 2017 02:04:17.433,8 Feb 2017 02:11:38.109,440.676
109,8 Feb 2017 10:54:47.098,8 Feb 2017 10:58:50.577,243.479
110,8 Feb 2017 12:32:54.201,8 Feb 2017 12:43:19.516,625.316
111,9 Feb 2017 01:29:28.666,9 Feb 2017 01:38:56.382,567.716
112,9 Feb 2017 11:59:26.202,9 Feb 2017 12:09:44.963,618.761
113,9 Feb 2017 13:41:49.961,9 Feb 2017 13:47:39.377,349.416
114,10 Feb 2017 00:55:24.423,10 Feb 2017 01:05:45.415,620.992
115,10 Feb 2017 11:26:18.022,10 Feb 2017 11:35:36.096,558.074
116,10 Feb 2017 13:07:10.057,10 Feb 2017 13:15:54.183,524.125
117,11 Feb 2017 00:28:20.838,11 Feb 2017 00:32:15.158,234.320
118,11 Feb 2017 02:05:53.948,11 Feb 2017 02:10:44.044,290.096
119,11 Feb 2017 10:53:41.709,11 Feb 2017 11:00:39.930,418.221
120,11 Feb 2017 12:33:09.778,11 Feb 2017 12:43:14.703,604.925
121,12 Feb 2017 01:30:17.471,12 Feb 2017 01:38:40.097,502.626
122,12 Feb 2017 11:59:30.828,12 Feb 2017 12:09:59.705,628.877
123,13 Feb 2017 00:55:48.735,13 Feb 2017 01:05:44.531,595.796
124,13 Feb 2017 11:26:10.111,13 Feb 2017 11:36:12.257,602.146
125,13 Feb 2017 13:07:52.737,13 Feb 2017 13:15:08.301,435.564
126,14 Feb 2017 00:31:55.271,14 Feb 2017 00:32:25.492,30.221
127,14 Feb 2017 10:53:11.950,14 Feb 2017 11:01:47.461,515.511
128,14 Feb 2017 12:33:33.013,14 Feb 2017 12:42:57.088,564.075
129,15 Feb 2017 01:31:28.839,15 Feb 2017 01:38:07.218,398.379
130,15 Feb 2017 10:20:59.835,15 Feb 2017 10:26:20.633,320.798
131,15 Feb 2017 11:59:42.065,15 Feb 2017 12:10:02.681,620.616
132,16 Feb 2017 00:56:26.845,16 Feb 2017 01:05:35.347,548.502
133,16 Feb 2017 11:26:10.279,16 Feb 2017 11:36:34.971,624.692
134,16 Feb 2017 13:09:02.826,16 Feb 2017 13:13:49.499,286.673
135,17 Feb 2017 10:52:57.445,17 Feb 2017 11:02:33.941,576.496
136,17 Feb 2017 12:34:06.344,17 Feb 2017 12:42:24.148,497.804
137,18 Feb 2017 01:33:30.496,18 Feb 2017 01:36:50.399,199.903
138,18 Feb 2017 10:20:12.154,18 Feb 2017 10:25:14.424,302.270
139,18 Feb 2017 10:27:04.436,18 Feb 2017 10:27:50.173,45.737
140,18 Feb 2017 12:00:00.235,18 Feb 2017 12:05:15.425,315.190
141,18 Feb 2017 12:08:04.751,18 Feb 2017 12:09:53.598,108.847
142,19 Feb 2017 00:57:22.424,19 Feb 2017 01:05:14.451,472.027
143,19 Feb 2017 09:48:57.179,19 Feb 2017 09:49:11.885,14.707
144,19 Feb 2017 11:26:17.316,19 Feb 2017 11:29:34.300,196.984
145,20 Feb 2017 10:52:52.664,20 Feb 2017 10:55:07.419,134.754
146,20 Feb 2017 12:34:55.984,20 Feb 2017 12:35:32.157,36.173
147,21 Feb 2017 10:19:48.874,21 Feb 2017 10:21:00.661,71.787
148,21 Feb 2017 12:00:26.686,21 Feb 2017 12:01:26.356,59.669
149,22 Feb 2017 00:58:45.406,22 Feb 2017 01:04:32.241,346.835
150,22 Feb 2017 11:26:30.978,22 Feb 2017 11:27:30.594,59.616
151,23 Feb 2017 10:52:55.401,23 Feb 2017 10:53:41.186,45.785
152,24 Feb 2017 10:19:38.248,24 Feb 2017 10:19:56.190,17.941
153,31 Mar 2017 07:33:19.338,31 Mar 2017 07:33:21.395,2.057
154,3 Apr 2017 07:33:29.756,3 Apr 2017 07:33:44.361,14.605
155,4 Apr 2017 07:00:00.265,4 Apr 2017 07:00:22.992,22.727
156,5 Apr 2017 06:26:50.189,5 Apr 2017 06:27:01.854,11.665
157,6 Apr 2017 07:33:46.965,6 Apr 2017 07:34:09.468,22.503
158,7 Apr 2017 07:00:06.432,7 Apr 2017 07:00:48.826,42.394
159,8 Apr 2017 06:26:44.141,8 Apr 2017 06:27:28.430,44.290
160,9 Apr 2017 05:53:43.641,9 Apr 2017 05:54:08.284,24.643
161,9 Apr 2017 07:34:12.079,9 Apr 2017 07:34:36.857,24.778
162,10 Apr 2017 07:00:19.191,10 Apr 2017 07:01:16.996,57.805
163,11 Apr 2017 06:26:45.879,11 Apr 2017 06:27:57.401,71.521
164,12 Apr 2017 05:53:31.288,12 Apr 2017 05:54:38.085,66.797
165,12 Apr 2017 07:34:47.923,12 Apr 2017 07:35:06.713,18.790
166,13 Apr 2017 05:20:42.868,13 Apr 2017 05:21:19.056,36.188
167,13 Apr 2017 07:00:38.999,13 Apr 2017 07:01:47.708,68.709
168,14 Apr 2017 06:26:54.372,14 Apr 2017 06:28:28.993,94.621
169,15 Apr 2017 05:53:28.171,15 Apr 2017 05:55:10.591,102.420
170,16 Apr 2017 05:20:22.298,16 Apr 2017 05:21:52.505,90.207
171,16 Apr 2017 07:01:07.445,16 Apr 2017 07:02:21.226,73.781
172,17 Apr 2017 04:47:50.738,17 Apr 2017 04:48:34.751,44.013
173,17 Apr 2017 06:27:09.519,17 Apr 2017 06:29:03.498,113.978
174,18 Apr 2017 05:53:32.360,18 Apr 2017 05:55:46.113,133.753
175,19 Apr 2017 05:20:13.533,19 Apr 2017 05:22:29.087,135.554
176,19 Apr 2017 07:01:48.387,19 Apr 2017 07:02:57.884,69.497
177,20 Apr 2017 04:47:18.206,20 Apr 2017 04:49:12.434,114.227
178,20 Apr 2017 06:27:32.121,20 Apr 2017 06:29:41.259,129.139
179,21 Apr 2017 04:15:14.686,21 Apr 2017 04:15:56.170,41.484
180,21 Apr 2017 05:53:43.164,21 Apr 2017 05:56:25.024,161.861
181,22 Apr 2017 05:20:13.129,22 Apr 2017 05:23:09.197,176.068
182,22 Apr 2017 07:02:53.428,22 Apr 2017 07:03:38.079,44.651
183,23 Apr 2017 04:47:02.390,23 Apr 2017 04:49:53.793,171.402
184,23 Apr 2017 06:28:04.338,23 Apr 2017 06:30:22.709,138.371
185,24 Apr 2017 04:14:20.936,24 Apr 2017 04:16:38.832,137.896
186,24 Apr 2017 05:54:00.796,24 Apr 2017 05:57:07.783,186.986
187,25 Apr 2017 05:20:19.675,25 Apr 2017 05:23:53.322,213.646
188,26 Apr 2017 04:46:56.818,26 Apr 2017 04:50:39.345,222.528
189,26 Apr 2017 06:28:51.591,26 Apr 2017 06:31:08.364,136.772
190,27 Apr 2017 04:13:55.517,27 Apr 2017 04:17:25.880,210.363
191,27 Apr 2017 05:54:26.440,27 Apr 2017 05:57:54.938,208.498
192,28 Apr 2017 03:41:34.712,28 Apr 2017 03:44:12.948,158.236
193,28 Apr 2017 05:20:32.828,28 Apr 2017 05:24:42.052,249.225
194,29 Apr 2017 04:46:58.970,29 Apr 2017 04:51:29.722,270.752
195,29 Apr 2017 06:30:14.114,29 Apr 2017 06:31:58.859,104.745
196,30 Apr 2017 04:13:43.749,30 Apr 2017 04:18:17.983,274.234
197,30 Apr 2017 05:55:03.031,30 Apr 2017 05:58:47.167,224.136
198,1 May 2017 03:40:54.259,1 May 2017 03:45:06.865,252.606
199,1 May 2017 05:20:53.092,1 May 2017 05:25:36.098,283.006
200,2 May 2017 03:09:13.642,2 May 2017 03:11:56.401,162.760
201,2 May 2017 04:47:07.849,2 May 2017 04:52:25.685,317.836
202,3 May 2017 04:13:41.089,3 May 2017 04:19:15.955,334.865
203,3 May 2017 05:55:58.523,3 May 2017 05:59:45.287,226.764
204,4 May 2017 03:40:34.479,4 May 2017 03:46:06.955,332.475
205,4 May 2017 05:21:22.119,4 May 2017 05:26:36.340,314.221
206,5 May 2017 03:08:01.297,5 May 2017 03:12:58.714,297.418
207,5 May 2017 04:47:23.418,5 May 2017 04:53:28.160,364.741
208,6 May 2017 04:13:45.685,6 May 2017 04:20:20.793,395.108
209,6 May 2017 05:58:01.853,6 May 2017 05:59:46.187,104.334
210,7 May 2017 03:40:26.265,7 May 2017 03:47:14.279,408.014
211,7 May 2017 05:22:03.960,7 May 2017 05:27:43.846,339.886
212,8 May 2017 03:07:29.997,8 May 2017 03:14:08.668,398.671
213,8 May 2017 04:47:46.510,8 May 2017 04:54:38.302,411.792
214,9 May 2017 02:35:23.357,9 May 2017 02:40:23.852,300.495
215,9 May 2017 04:13:56.909,9 May 2017 04:21:33.723,456.813
216,10 May 2017 03:40:26.317,10 May 2017 03:48:30.152,483.835
217,10 May 2017 05:23:11.067,10 May 2017 05:28:13.646,302.579
218,11 May 2017 03:07:14.900,11 May 2017 03:15:27.662,492.762
219,11 May 2017 04:48:19.397,11 May 2017 04:55:57.524,458.128
220,12 May 2017 02:34:32.118,12 May 2017 02:41:58.698,446.580
221,12 May 2017 04:14:14.996,12 May 2017 04:22:56.256,521.260
222,13 May 2017 02:03:43.827,13 May 2017 02:05:01.956,78.129
223,13 May 2017 03:40:33.301,13 May 2017 03:49:56.200,562.899
224,14 May 2017 03:07:09.870,14 May 2017 03:16:57.424,587.554
225,14 May 2017 04:49:07.775,14 May 2017 04:55:51.278,403.503
226,15 May 2017 02:34:07.731,15 May 2017 02:43:00.612,532.881
227,15 May 2017 04:14:41.201,15 May 2017 04:23:49.643,548.441
228,16 May 2017 02:06:33.051,16 May 2017 02:07:47.726,74.675
229,16 May 2017 03:40:46.907,16 May 2017 03:51:01.231,614.324
230,17 May 2017 03:07:12.500,17 May 2017 03:17:38.792,626.293
231,17 May 2017 04:50:33.844,17 May 2017 04:54:16.291,222.447
232,18 May 2017 02:33:56.644,18 May 2017 02:43:43.507,586.863
233,18 May 2017 04:15:18.588,18 May 2017 04:23:12.538,473.951
234,19 May 2017 03:41:07.679,19 May 2017 03:50:49.490,581.810
235,20 May 2017 03:07:21.844,20 May 2017 03:17:47.059,625.215
236,21 May 2017 02:33:54.534,21 May 2017 02:44:11.970,617.436
237,21 May 2017 04:16:15.573,21 May 2017 04:22:10.406,354.833
238,22 May 2017 03:41:37.355,22 May 2017 03:50:23.650,526.295
239,23 May 2017 03:07:37.912,23 May 2017 03:17:43.483,605.571
240,24 May 2017 02:33:59.634,24 May 2017 02:44:27.967,628.333
241,24 May 2017 04:18:33.488,24 May 2017 04:19:41.671,68.183
242,25 May 2017 03:42:20.174,25 May 2017 03:49:39.349,439.175
243,26 May 2017 03:08:01.585,26 May 2017 03:17:27.146,565.561
244,27 May 2017 02:34:11.367,27 May 2017 02:44:32.174,620.807
245,28 May 2017 03:43:29.470,28 May 2017 03:48:23.063,293.593
246,29 May 2017 03:08:35.234,29 May 2017 03:16:55.607,500.373
247,30 May 2017 02:34:30.005,30 May 2017 02:44:24.333,594.328
248,1 Jun 2017 03:09:24.854,1 Jun 2017 03:16:02.712,397.858
249,2 Jun 2017 02:34:56.871,2 Jun 2017 02:44:03.104,546.233
250,4 Jun 2017 03:10:54.917,4 Jun 2017 03:14:23.782,208.865
251,5 Jun 2017 02:35:35.172,5 Jun 2017 02:43:25.157,469.985
252,8 Jun 2017 02:36:33.840,8 Jun 2017 02:42:21.399,347.560
253,19 Jun 2017 11:06:36.855,19 Jun 2017 11:10:50.433,253.578
254,22 Jun 2017 11:05:10.467,22 Jun 2017 11:12:09.206,418.739
255,25 Jun 2017 11:04:22.020,25 Jun 2017 11:12:55.698,513.677
256,26 Jun 2017 10:32:44.260,26 Jun 2017 10:38:10.281,326.021
257,27 Jun 2017 11:36:52.131,27 Jun 2017 11:37:50.090,57.959
258,28 Jun 2017 11:03:53.464,28 Jun 2017 11:13:27.773,574.309
259,29 Jun 2017 10:31:35.709,29 Jun 2017 10:39:13.350,457.641
260,30 Jun 2017 10:00:52.686,30 Jun 2017 10:03:39.268,166.581
261,30 Jun 2017 11:36:58.488,30 Jun 2017 11:39:07.710,129.222
262,1 Jul 2017 11:03:39.606,1 Jul 2017 11:13:50.483,610.877
263,2 Jul 2017 10:30:55.317,2 Jul 2017 10:39:53.858,538.541
264,3 Jul 2017 09:59:00.702,3 Jul 2017 10:05:22.135,381.432
265,3 Jul 2017 11:37:16.753,3 Jul 2017 11:40:38.322,201.569
266,4 Jul 2017 11:03:38.331,4 Jul 2017 11:14:05.863,627.532
267,5 Jul 2017 10:30:32.384,5 Jul 2017 10:40:22.315,589.931
268,6 Jul 2017 09:58:04.433,6 Jul 2017 10:06:15.036,490.603
269,6 Jul 2017 11:37:47.785,6 Jul 2017 11:42:20.948,273.163
270,7 Jul 2017 09:26:45.355,7 Jul 2017 09:31:13.751,268.396
271,7 Jul 2017 11:03:48.927,7 Jul 2017 11:14:14.643,625.716
272,8 Jul 2017 10:30:23.190,8 Jul 2017 10:40:42.332,619.142
273,9 Jul 2017 09:57:30.940,9 Jul 2017 10:06:50.676,559.736
274,9 Jul 2017 11:38:33.834,9 Jul 2017 11:44:14.589,340.755
275,10 Jul 2017 09:25:22.867,10 Jul 2017 09:32:29.284,426.416
276,10 Jul 2017 11:04:11.610,10 Jul 2017 11:14:16.657,605.048
277,11 Jul 2017 10:30:26.204,11 Jul 2017 10:40:55.391,629.187
278,12 Jul 2017 09:57:13.195,12 Jul 2017 10:07:15.925,602.730
279,12 Jul 2017 11:39:40.256,12 Jul 2017 11:46:18.241,397.985
280,13 Jul 2017 09:24:36.078,13 Jul 2017 09:33:14.777,518.700
281,13 Jul 2017 11:04:47.648,13 Jul 2017 11:14:10.790,563.142
282,14 Jul 2017 08:52:55.237,14 Jul 2017 08:58:32.054,336.818
283,14 Jul 2017 10:30:57.982,14 Jul 2017 10:41:01.877,603.895
284,15 Jul 2017 09:57:55.695,15 Jul 2017 10:07:33.420,577.725
285,15 Jul 2017 11:41:24.965,15 Jul 2017 11:45:50.261,265.296
286,16 Jul 2017 09:24:52.317,16 Jul 2017 09:33:46.315,533.998
287,16 Jul 2017 11:05:40.066,16 Jul 2017 11:13:54.247,494.180
288,17 Jul 2017 08:51:49.254,17 Jul 2017 08:59:33.201,463.947
289,17 Jul 2017 10:32:17.562,17 Jul 2017 10:41:01.333,523.771
290,18 Jul 2017 08:20:58.202,18 Jul 2017 08:24:06.742,188.540
291,18 Jul 2017 09:59:12.113,18 Jul 2017 10:07:44.183,512.071
292,19 Jul 2017 09:26:05.740,19 Jul 2017 09:34:08.657,482.917
293,19 Jul 2017 11:06:56.528,19 Jul 2017 11:13:19.683,383.156
294,20 Jul 2017 08:52:58.499,20 Jul 2017 09:00:12.913,434.414
295,20 Jul 2017 10:33:27.953,20 Jul 2017 10:40:52.174,444.222
296,21 Jul 2017 08:19:50.433,21 Jul 2017 08:25:43.120,352.687
297,21 Jul 2017 10:00:19.831,21 Jul 2017 10:07:48.315,448.484
298,22 Jul 2017 09:27:10.926,22 Jul 2017 09:34:23.735,432.809
299,22 Jul 2017 11:09:14.244,22 Jul 2017 11:11:50.299,156.056
300,23 Jul 2017 08:54:01.283,23 Jul 2017 09:00:40.891,399.608
301,23 Jul 2017 10:34:30.564,23 Jul 2017 10:40:30.569,360.006
302,24 Jul 2017 08:20:50.930,24 Jul 2017 08:26:34.696,343.767
303,24 Jul 2017 10:01:20.165,24 Jul 2017 10:07:45.009,384.843
304,25 Jul 2017 07:47:39.903,25 Jul 2017 07:51:37.075,237.171
305,25 Jul 2017 09:28:09.100,25 Jul 2017 09:34:32.213,383.113
306,26 Jul 2017 08:54:57.393,26 Jul 2017 09:01:00.551,363.158
307,26 Jul 2017 10:35:26.527,26 Jul 2017 10:39:45.208,258.681
308,27 Jul 2017 08:21:45.080,27 Jul 2017 08:27:09.680,324.600
309,27 Jul 2017 10:02:14.176,27 Jul 2017 10:07:32.097,317.921
310,28 Jul 2017 07:48:32.187,28 Jul 2017 07:52:49.762,257.575
311,28 Jul 2017 09:29:01.247,28 Jul 2017 09:34:33.879,332.632
312,29 Jul 2017 08:55:47.763,29 Jul 2017 09:01:13.288,325.525
313,30 Jul 2017 08:22:33.753,30 Jul 2017 08:27:34.489,300.735
314,30 Jul 2017 10:03:02.733,30 Jul 2017 10:07:04.196,241.463
315,31 Jul 2017 07:49:19.239,31 Jul 2017 07:53:34.268,255.029
316,31 Jul 2017 09:29:48.185,31 Jul 2017 09:34:27.541,279.357
317,1 Aug 2017 07:16:04.243,1 Aug 2017 07:18:53.905,169.662
318,1 Aug 2017 08:56:33.158,1 Aug 2017 09:01:19.443,286.285
319,2 Aug 2017 08:23:17.671,2 Aug 2017 08:27:51.627,273.956
320,2 Aug 2017 10:03:46.543,2 Aug 2017 10:06:01.860,135.317
321,3 Aug 2017 07:50:01.735,3 Aug 2017 07:54:05.247,243.512
322,3 Aug 2017 09:30:30.582,3 Aug 2017 09:34:10.248,219.666
323,4 Aug 2017 07:16:45.379,4 Aug 2017 07:19:53.325,187.945
324,4 Aug 2017 08:57:14.197,4 Aug 2017 09:01:18.496,244.299
325,5 Aug 2017 06:43:28.610,5 Aug 2017 06:44:32.807,64.197
326,5 Aug 2017 08:23:57.401,5 Aug 2017 08:28:02.060,244.659
327,6 Aug 2017 07:50:40.216,6 Aug 2017 07:54:27.185,226.968
328,6 Aug 2017 09:31:08.971,6 Aug 2017 09:33:34.123,145.151
329,7 Aug 2017 07:17:22.647,7 Aug 2017 07:20:32.261,189.614
330,7 Aug 2017 08:57:51.378,7 Aug 2017 09:01:08.774,197.396
331,8 Aug 2017 06:44:04.715,8 Aug 2017 06:46:04.186,119.471
332,8 Aug 2017 08:24:33.423,8 Aug 2017 08:28:05.829,212.406
333,9 Aug 2017 07:51:15.114,9 Aug 2017 07:54:41.920,206.806
334,9 Aug 2017 09:31:43.789,9 Aug 2017 09:31:54.546,10.757
335,10 Aug 2017 07:17:56.466,10 Aug 2017 07:20:59.756,183.290
336,10 Aug 2017 08:58:25.119,10 Aug 2017 09:00:46.215,141.095
337,11 Aug 2017 06:44:37.481,11 Aug 2017 06:46:54.571,137.090
338,11 Aug 2017 08:25:06.114,11 Aug 2017 08:28:02.074,175.960
339,12 Aug 2017 06:11:18.182,12 Aug 2017 06:12:00.076,41.895
340,12 Aug 2017 07:51:46.790,12 Aug 2017 07:54:50.061,183.271
341,13 Aug 2017 07:18:27.153,13 Aug 2017 07:21:19.044,171.891
342,13 Aug 2017 08:58:55.736,13 Aug 2017 08:59:58.486,62.750
343,14 Aug 2017 06:45:07.212,14 Aug 2017 06:47:28.930,141.718
344,14 Aug 2017 08:25:35.780,14 Aug 2017 08:27:48.499,132.718
345,15 Aug 2017 06:11:46.974,15 Aug 2017 06:13:10.369,83.395
346,15 Aug 2017 07:52:15.519,15 Aug 2017 07:54:51.345,155.826
347,16 Aug 2017 07:18:54.973,16 Aug 2017 07:21:31.458,156.485
348,17 Aug 2017 06:45:34.142,17 Aug 2017 06:47:53.320,139.178
349,17 Aug 2017 08:26:02.644,17 Aug 2017 08:27:19.359,76.715
350,18 Aug 2017 06:12:13.032,18 Aug 2017 06:13:53.993,100.961
351,18 Aug 2017 07:52:41.514,18 Aug 2017 07:54:44.505,122.991
352,19 Aug 2017 05:38:51.650,19 Aug 2017 05:39:15.748,24.098
353,19 Aug 2017 07:19:20.113,19 Aug 2017 07:21:37.276,137.163
354,20 Aug 2017 06:45:58.441,20 Aug 2017 06:48:10.128,131.687
355,21 Aug 2017 06:12:36.502,21 Aug 2017 06:14:24.462,107.960
356,21 Aug 2017 07:53:04.924,21 Aug 2017 07:54:26.426,81.503
357,22 Aug 2017 05:39:14.298,22 Aug 2017 05:40:13.677,59.379
358,22 Aug 2017 07:19:42.703,22 Aug 2017 07:21:35.937,113.233
359,23 Aug 2017 06:46:20.220,23 Aug 2017 06:48:20.260,120.040
360,24 Aug 2017 06:12:57.478,24 Aug 2017 06:14:46.044,108.565
361,24 Aug 2017 07:53:25.842,24 Aug 2017 07:53:48.610,22.768
362,25 Aug 2017 05:39:34.471,25 Aug 2017 05:40:51.937,77.466
363,25 Aug 2017 07:20:02.818,25 Aug 2017 07:21:25.662,82.844
364,26 Aug 2017 05:06:11.205,26 Aug 2017 05:06:25.483,14.278
365,26 Aug 2017 06:46:39.538,26 Aug 2017 06:48:23.703,104.165
366,27 Aug 2017 06:13:15.994,27 Aug 2017 06:15:00.489,104.495
367,28 Aug 2017 05:39:52.184,28 Aug 2017 05:41:19.015,86.831
368,28 Aug 2017 07:20:20.472,28 Aug 2017 07:21:02.147,41.675
369,29 Aug 2017 05:06:28.112,29 Aug 2017 05:07:14.833,46.722
370,29 Aug 2017 06:46:56.384,29 Aug 2017 06:48:19.537,83.153
371,30 Aug 2017 06:13:32.021,30 Aug 2017 06:15:08.349,96.328
372,31 Aug 2017 05:40:07.387,31 Aug 2017 05:41:38.012,90.625
373,1 Sep 2017 05:06:42.475,1 Sep 2017 05:07:48.662,66.186
374,1 Sep 2017 06:47:10.685,1 Sep 2017 06:48:05.341,54.657
375,2 Sep 2017 04:33:17.273,2 Sep 2017 04:33:31.448,14.175
376,2 Sep 2017 06:13:45.467,2 Sep 2017 06:15:09.319,83.852
377,3 Sep 2017 05:40:19.953,3 Sep 2017 05:41:50.166,90.213
378,4 Sep 2017 05:06:54.134,4 Sep 2017 05:08:12.723,78.589
379,4 Sep 2017 06:47:22.276,4 Sep 2017 06:47:34.993,12.717
380,5 Sep 2017 04:33:28.002,5 Sep 2017 04:34:14.310,46.309
381,5 Sep 2017 06:13:56.126,5 Sep 2017 06:15:02.057,65.931
382,6 Sep 2017 05:40:29.643,6 Sep 2017 05:41:55.736,86.093
383,7 Sep 2017 05:07:02.823,7 Sep 2017 05:08:29.284,86.461
384,8 Sep 2017 04:33:35.640,8 Sep 2017 04:34:44.365,68.724
385,8 Sep 2017 06:14:03.681,8 Sep 2017 06:14:43.267,39.586
386,9 Sep 2017 04:00:08.081,9 Sep 2017 04:00:34.754,26.673
387,9 Sep 2017 05:40:36.099,9 Sep 2017 05:41:54.087,77.988
388,10 Sep 2017 05:07:08.108,10 Sep 2017 05:08:39.199,91.092
389,11 Sep 2017 04:33:39.693,11 Sep 2017 04:35:05.685,85.993
390,12 Sep 2017 04:00:10.821,12 Sep 2017 04:01:12.433,61.612
391,12 Sep 2017 05:40:38.743,12 Sep 2017 05:41:43.357,64.614
392,13 Sep 2017 03:26:41.461,13 Sep 2017 03:26:47.669,6.208
393,13 Sep 2017 05:07:09.343,13 Sep 2017 05:08:42.413,93.070
394,14 Sep 2017 04:33:39.417,14 Sep 2017 04:35:19.927,100.511
395,15 Sep 2017 04:00:08.910,15 Sep 2017 04:01:39.187,90.277
396,15 Sep 2017 05:40:36.705,15 Sep 2017 05:41:18.989,42.284
397,16 Sep 2017 03:26:37.768,16 Sep 2017 03:27:36.058,58.290
398,16 Sep 2017 05:07:05.515,16 Sep 2017 05:08:37.935,92.420
399,17 Sep 2017 04:33:33.629,17 Sep 2017 04:35:27.599,113.970
400,18 Sep 2017 04:00:00.967,18 Sep 2017 04:01:57.968,117.001
401,19 Sep 2017 03:26:27.444,19 Sep 2017 03:28:09.440,101.996
402,19 Sep 2017 05:06:55.013,19 Sep 2017 05:08:23.229,88.216
403,20 Sep 2017 02:52:52.950,20 Sep 2017 02:53:53.652,60.702
404,20 Sep 2017 04:33:20.447,20 Sep 2017 04:35:28.347,127.901
405,21 Sep 2017 03:59:44.761,21 Sep 2017 04:02:09.953,145.191
406,22 Sep 2017 03:26:07.811,22 Sep 2017 03:28:33.239,145.428
407,22 Sep 2017 05:06:35.116,22 Sep 2017 05:07:51.783,76.667
408,23 Sep 2017 02:52:29.379,23 Sep 2017 02:54:35.797,126.418
409,23 Sep 2017 04:32:56.572,23 Sep 2017 04:35:20.750,144.178
410,24 Sep 2017 02:18:49.225,24 Sep 2017 02:20:01.887,72.662
411,24 Sep 2017 03:59:16.285,24 Sep 2017 04:02:15.350,179.065
412,25 Sep 2017 03:25:33.905,25 Sep 2017 03:28:49.621,195.717
413,25 Sep 2017 05:06:00.783,25 Sep 2017 05:06:35.512,34.729
414,26 Sep 2017 02:51:48.988,26 Sep 2017 02:55:05.490,196.503
415,26 Sep 2017 04:32:15.666,26 Sep 2017 04:35:01.344,165.678
416,27 Sep 2017 02:18:00.918,27 Sep 2017 02:20:57.127,176.209
417,27 Sep 2017 03:58:27.344,27 Sep 2017 04:02:13.467,226.123
418,28 Sep 2017 01:44:08.813,28 Sep 2017 01:45:51.190,102.378
419,28 Sep 2017 03:24:34.910,28 Sep 2017 03:28:59.383,264.473
420,29 Sep 2017 02:50:36.974,29 Sep 2017 02:55:26.585,289.611
421,29 Sep 2017 04:31:02.570,29 Sep 2017 04:34:20.341,197.771
422,30 Sep 2017 02:16:31.261,30 Sep 2017 02:21:34.246,302.985
423,30 Sep 2017 03:56:56.170,30 Sep 2017 04:02:02.352,306.182
424,1 Oct 2017 01:42:13.426,1 Oct 2017 01:47:11.262,297.836
425,1 Oct 2017 03:22:37.204,1 Oct 2017 03:29:02.416,385.212
426,2 Oct 2017 02:47:54.391,2 Oct 2017 02:55:40.668,466.277
427,3 Oct 2017 02:12:01.305,3 Oct 2017 02:22:00.695,599.390
428,3 Oct 2017 03:54:23.025,3 Oct 2017 04:01:37.195,434.170
429,3 Oct 2017 12:44:41.354,3 Oct 2017 12:49:02.716,261.362
430,4 Oct 2017 01:39:25.948,4 Oct 2017 01:47:58.679,512.732
431,4 Oct 2017 03:19:32.663,4 Oct 2017 03:28:57.670,565.008
432,5 Oct 2017 01:07:48.789,5 Oct 2017 01:13:13.185,324.395
433,5 Oct 2017 02:45:27.588,5 Oct 2017 02:55:48.182,620.594
434,6 Oct 2017 02:11:56.365,6 Oct 2017 02:22:19.271,622.906
435,6 Oct 2017 03:56:04.981,6 Oct 2017 04:00:41.926,276.945
436,6 Oct 2017 12:43:42.176,6 Oct 2017 12:50:49.230,427.053
437,7 Oct 2017 01:38:58.034,7 Oct 2017 01:48:31.599,573.564
438,7 Oct 2017 03:20:24.548,7 Oct 2017 03:28:42.484,497.936
439,8 Oct 2017 01:06:40.672,8 Oct 2017 01:14:17.302,456.630
440,8 Oct 2017 02:45:54.610,8 Oct 2017 02:55:48.723,594.113
441,9 Oct 2017 00:35:58.841,9 Oct 2017 00:38:42.534,163.693
442,9 Oct 2017 02:12:03.437,9 Oct 2017 02:22:31.098,627.661
443,9 Oct 2017 12:43:15.713,9 Oct 2017 12:51:56.828,521.115
444,10 Oct 2017 01:38:44.853,10 Oct 2017 01:48:55.124,610.271
445,10 Oct 2017 03:21:39.799,10 Oct 2017 03:28:09.950,390.151
446,10 Oct 2017 12:11:00.776,10 Oct 2017 12:16:34.761,333.986
447,11 Oct 2017 01:06:00.892,11 Oct 2017 01:14:58.688,537.796
448,11 Oct 2017 02:46:35.645,11 Oct 2017 02:55:40.797,545.152
449,12 Oct 2017 00:34:06.695,12 Oct 2017 00:40:27.054,380.359
450,12 Oct 2017 02:12:22.420,12 Oct 2017 02:22:36.311,613.890
451,12 Oct 2017 12:43:03.927,12 Oct 2017 12:52:43.939,580.012
452,13 Oct 2017 01:38:44.285,13 Oct 2017 01:49:11.309,627.024
453,13 Oct 2017 03:23:50.720,13 Oct 2017 03:26:48.170,177.450
454,13 Oct 2017 12:10:17.611,13 Oct 2017 12:18:03.105,465.494

"Access","Start Time (UTCG)","Stop Time (UTCG)","Duration (sec)"
1,9 Nov 2016 13:39:28.839,9 Nov 2016 13:43:12.276,223.437
2,10 Nov 2016 13:07:12.809,10 Nov 2016 13:12:35.394,322.585
3,12 Nov 2016 13:39:03.602,12 Nov 2016 13:46:41.047,457.445
4,13 Nov 2016 13:06:14.799,13 Nov 2016 13:13:52.583,457.784
5,14 Nov 2016 12:34:57.540,14 Nov 2016 12:37:16.623,139.082
6,15 Nov 2016 13:38:47.668,15 Nov 2016 13:48:59.895,612.226
7,16 Nov 2016 13:05:40.423,16 Nov 2016 13:14:39.822,539.399
8,17 Nov 2016 12:33:10.649,17 Nov 2016 12:39:26.476,375.827
9,18 Nov 2016 13:38:38.884,18 Nov 2016 13:49:06.800,627.917
10,19 Nov 2016 02:34:46.692,19 Nov 2016 02:36:33.023,106.331
11,19 Nov 2016 13:05:18.284,19 Nov 2016 13:15:08.843,590.559
12,20 Nov 2016 02:00:59.123,20 Nov 2016 02:04:33.322,214.199
13,20 Nov 2016 12:32:22.467,20 Nov 2016 12:40:31.015,488.548
14,21 Nov 2016 01:27:44.100,21 Nov 2016 01:32:42.429,298.329
15,21 Nov 2016 03:10:01.129,21 Nov 2016 03:13:17.788,196.659
16,21 Nov 2016 12:00:27.406,21 Nov 2016 12:04:36.015,248.609
17,21 Nov 2016 13:38:36.438,21 Nov 2016 13:49:01.898,625.460
18,22 Nov 2016 00:55:05.722,22 Nov 2016 01:01:04.738,359.016
19,22 Nov 2016 02:35:08.003,22 Nov 2016 02:41:41.377,393.373
20,22 Nov 2016 13:05:04.527,22 Nov 2016 13:15:23.765,619.238
21,23 Nov 2016 00:23:27.344,23 Nov 2016 00:28:42.830,315.486
22,23 Nov 2016 02:00:59.654,23 Nov 2016 02:10:37.576,577.922
23,23 Nov 2016 12:31:52.450,23 Nov 2016 12:41:11.191,558.741
24,24 Nov 2016 01:27:25.136,24 Nov 2016 01:37:47.887,622.751
25,24 Nov 2016 03:11:25.026,24 Nov 2016 03:16:16.589,291.564
26,24 Nov 2016 11:59:12.246,24 Nov 2016 12:06:11.210,418.964
27,24 Nov 2016 13:38:40.364,24 Nov 2016 13:48:45.210,604.846
28,25 Nov 2016 00:54:23.769,25 Nov 2016 01:03:54.924,571.155
29,25 Nov 2016 02:35:44.599,25 Nov 2016 02:44:08.762,504.163
30,25 Nov 2016 13:04:57.535,25 Nov 2016 13:15:26.376,628.841
31,26 Nov 2016 00:22:04.194,26 Nov 2016 00:29:34.571,450.377
32,26 Nov 2016 02:01:11.949,26 Nov 2016 02:11:09.318,597.368
33,26 Nov 2016 12:31:32.998,26 Nov 2016 12:41:34.919,601.921
34,26 Nov 2016 23:51:30.155,26 Nov 2016 23:53:43.819,133.664
35,27 Nov 2016 01:27:17.723,27 Nov 2016 01:37:46.352,628.629
36,27 Nov 2016 11:58:31.130,27 Nov 2016 12:07:05.895,514.764
37,27 Nov 2016 13:38:51.579,27 Nov 2016 13:48:15.803,564.224
38,28 Nov 2016 00:53:56.165,28 Nov 2016 01:04:04.984,608.819
39,28 Nov 2016 02:36:42.955,28 Nov 2016 02:43:24.730,401.775
40,28 Nov 2016 11:26:15.846,28 Nov 2016 11:31:34.193,318.347
41,28 Nov 2016 13:04:56.789,28 Nov 2016 13:15:17.288,620.500
42,29 Nov 2016 00:21:09.688,29 Nov 2016 00:30:02.739,533.051
43,29 Nov 2016 02:01:37.519,29 Nov 2016 02:10:48.473,550.954
44,29 Nov 2016 12:31:21.223,29 Nov 2016 12:41:45.315,624.093
45,29 Nov 2016 23:49:14.841,29 Nov 2016 23:55:23.511,368.670
46,30 Nov 2016 01:27:21.684,30 Nov 2016 01:37:38.197,616.513
47,30 Nov 2016 11:58:04.717,30 Nov 2016 12:07:39.799,575.083
48,30 Nov 2016 13:39:12.422,30 Nov 2016 13:47:31.254,498.832
49,1 Dec 2016 00:53:40.734,1 Dec 2016 01:04:07.604,626.870
50,1 Dec 2016 02:38:28.584,1 Dec 2016 02:41:59.236,210.652
51,1 Dec 2016 11:25:16.114,1 Dec 2016 11:32:51.070,454.956
52,1 Dec 2016 13:05:02.606,1 Dec 2016 13:14:56.233,593.627
53,2 Dec 2016 00:20:32.491,2 Dec 2016 00:30:18.497,586.006
54,2 Dec 2016 02:02:19.841,2 Dec 2016 02:10:16.102,476.261
55,2 Dec 2016 10:54:03.370,2 Dec 2016 10:56:09.708,126.338
56,2 Dec 2016 12:31:15.942,2 Dec 2016 12:41:43.711,627.769
57,2 Dec 2016 23:48:03.151,2 Dec 2016 23:56:04.804,481.653
58,3 Dec 2016 01:27:37.757,3 Dec 2016 01:37:22.797,585.040
59,3 Dec 2016 11:57:47.632,3 Dec 2016 12:07:58.574,610.943
60,3 Dec 2016 13:39:48.816,3 Dec 2016 13:46:25.492,396.676
61,4 Dec 2016 00:53:36.696,4 Dec 2016 01:04:03.565,626.870
62,4 Dec 2016 11:24:40.413,4 Dec 2016 11:33:37.598,537.184
63,4 Dec 2016 13:05:16.250,4 Dec 2016 13:14:21.895,545.644
64,5 Dec 2016 00:20:08.709,5 Dec 2016 00:30:25.615,616.905
65,5 Dec 2016 02:03:28.117,5 Dec 2016 02:09:23.317,355.200
66,5 Dec 2016 10:52:11.232,5 Dec 2016 10:58:22.766,371.534
67,5 Dec 2016 12:31:16.920,5 Dec 2016 12:41:30.434,613.514
68,5 Dec 2016 23:47:14.680,5 Dec 2016 23:56:27.885,553.205
69,6 Dec 2016 01:28:07.935,6 Dec 2016 01:36:58.345,530.411
70,6 Dec 2016 11:57:37.694,6 Dec 2016 12:08:04.599,626.904
71,6 Dec 2016 13:41:04.715,6 Dec 2016 13:44:34.375,209.660
72,7 Dec 2016 00:53:44.159,7 Dec 2016 01:03:52.809,608.650
73,7 Dec 2016 11:24:17.042,7 Dec 2016 11:34:05.809,588.767
74,7 Dec 2016 13:05:40.855,7 Dec 2016 13:13:31.049,470.194
75,8 Dec 2016 00:19:56.716,8 Dec 2016 00:30:25.662,628.946
76,8 Dec 2016 02:06:20.204,8 Dec 2016 02:06:52.682,32.478
77,8 Dec 2016 10:52:29.309,8 Dec 2016 10:59:26.906,417.597
78,8 Dec 2016 12:33:04.596,8 Dec 2016 12:41:04.900,480.303
79,8 Dec 2016 23:46:41.828,8 Dec 2016 23:56:40.190,598.363
80,9 Dec 2016 01:28:56.825,9 Dec 2016 01:36:20.483,443.658
81,9 Dec 2016 10:20:38.329,9 Dec 2016 10:23:29.057,170.729
82,9 Dec 2016 12:01:12.894,9 Dec 2016 12:07:58.844,405.950
83,10 Dec 2016 00:54:04.202,10 Dec 2016 01:03:34.377,570.175
84,10 Dec 2016 11:29:12.581,10 Dec 2016 11:34:19.900,307.320
85,10 Dec 2016 13:09:46.563,10 Dec 2016 13:12:14.991,148.428
86,11 Dec 2016 00:19:56.048,11 Dec 2016 00:30:19.112,623.064
87,11 Dec 2016 10:57:05.418,11 Dec 2016 11:00:06.399,180.981
88,11 Dec 2016 12:37:38.959,11 Dec 2016 12:40:25.329,166.370
89,11 Dec 2016 23:46:21.684,11 Dec 2016 23:56:44.522,622.838
90,12 Dec 2016 01:30:18.471,12 Dec 2016 01:35:15.527,297.056
91,12 Dec 2016 10:24:52.421,12 Dec 2016 10:25:05.016,12.595
92,12 Dec 2016 12:05:25.576,12 Dec 2016 12:07:41.333,135.757
93,13 Dec 2016 00:54:39.441,13 Dec 2016 01:03:05.869,506.428
94,13 Dec 2016 11:33:07.066,13 Dec 2016 11:34:21.683,74.617
95,14 Dec 2016 00:20:07.121,14 Dec 2016 00:30:05.638,598.517
96,14 Dec 2016 23:46:13.068,14 Dec 2016 23:56:42.040,628.972
97,16 Dec 2016 00:55:36.150,16 Dec 2016 01:02:21.296,405.146
98,17 Dec 2016 00:20:31.384,17 Dec 2016 00:29:43.928,552.545
99,17 Dec 2016 23:46:15.802,17 Dec 2016 23:56:32.942,617.140
100,19 Dec 2016 00:57:18.591,19 Dec 2016 01:00:56.764,218.173
101,20 Dec 2016 00:21:12.246,20 Dec 2016 00:29:10.806,478.560
102,20 Dec 2016 23:46:30.596,20 Dec 2016 23:56:16.625,586.029
103,23 Dec 2016 00:22:18.647,23 Dec 2016 00:28:17.653,359.006
104,23 Dec 2016 23:46:59.392,23 Dec 2016 23:55:51.327,531.935
105,26 Dec 2016 00:24:54.582,26 Dec 2016 00:26:00.876,66.294
106,26 Dec 2016 23:47:46.695,26 Dec 2016 23:55:12.786,446.091
107,29 Dec 2016 23:49:06.051,29 Dec 2016 23:54:07.812,301.761
108,2 Mar 2017 04:04:40.512,2 Mar 2017 04:04:50.134,9.622
109,3 Mar 2017 03:31:12.671,3 Mar 2017 03:31:41.698,29.027
110,4 Mar 2017 02:58:06.840,4 Mar 2017 02:58:34.954,28.115
111,4 Mar 2017 04:38:33.307,4 Mar 2017 04:39:04.541,31.234
112,5 Mar 2017 04:04:35.006,5 Mar 2017 04:05:59.840,84.834
113,6 Mar 2017 03:30:56.255,6 Mar 2017 03:32:57.294,121.039
114,7 Mar 2017 02:57:36.370,7 Mar 2017 02:59:57.196,140.825
115,7 Mar 2017 04:38:49.936,7 Mar 2017 04:40:27.290,97.355
116,8 Mar 2017 02:24:43.204,8 Mar 2017 02:26:59.901,136.696
117,8 Mar 2017 04:04:36.077,8 Mar 2017 04:07:30.216,174.139
118,9 Mar 2017 01:53:08.696,9 Mar 2017 01:54:05.851,57.155
119,9 Mar 2017 03:30:46.199,9 Mar 2017 03:34:36.420,230.220
120,10 Mar 2017 02:57:14.761,10 Mar 2017 03:01:46.469,271.708
121,10 Mar 2017 04:39:23.175,10 Mar 2017 04:42:17.349,174.174
122,11 Mar 2017 02:24:03.981,11 Mar 2017 02:29:01.112,297.131
123,11 Mar 2017 04:04:45.149,11 Mar 2017 04:09:32.361,287.213
124,12 Mar 2017 01:51:28.929,12 Mar 2017 01:56:21.369,292.441
125,12 Mar 2017 03:30:42.354,12 Mar 2017 03:36:53.067,370.714
126,13 Mar 2017 02:57:00.085,13 Mar 2017 03:04:20.963,440.878
127,13 Mar 2017 04:40:43.401,13 Mar 2017 04:43:37.931,174.530
128,14 Mar 2017 02:23:36.293,14 Mar 2017 02:31:58.359,502.066
129,14 Mar 2017 04:05:05.612,14 Mar 2017 04:12:31.480,445.868
130,15 Mar 2017 01:50:36.720,15 Mar 2017 01:58:52.457,495.737
131,15 Mar 2017 03:30:45.397,15 Mar 2017 03:40:21.397,576.000
132,16 Mar 2017 01:18:33.507,16 Mar 2017 01:23:02.166,268.659
133,16 Mar 2017 02:56:51.621,16 Mar 2017 03:07:15.814,624.193
134,17 Mar 2017 02:23:16.663,17 Mar 2017 02:33:37.145,620.482
135,17 Mar 2017 04:05:47.063,17 Mar 2017 04:11:21.146,334.083
136,18 Mar 2017 01:50:01.377,18 Mar 2017 01:59:24.205,562.829
137,18 Mar 2017 03:30:57.197,18 Mar 2017 03:39:34.895,517.698
138,19 Mar 2017 01:17:16.965,19 Mar 2017 01:24:24.881,427.915
139,19 Mar 2017 02:56:49.485,19 Mar 2017 03:06:51.646,602.161
140,20 Mar 2017 02:23:03.633,20 Mar 2017 02:33:32.199,628.566
141,21 Mar 2017 01:49:36.123,21 Mar 2017 01:59:40.071,603.948
142,21 Mar 2017 03:31:22.306,21 Mar 2017 03:38:29.544,427.238
143,22 Mar 2017 01:16:30.952,22 Mar 2017 01:25:10.708,519.757
144,22 Mar 2017 02:56:54.658,22 Mar 2017 03:06:14.800,560.142
145,23 Mar 2017 02:22:56.763,23 Mar 2017 02:33:15.717,618.954
146,24 Mar 2017 01:49:18.313,24 Mar 2017 01:59:42.918,624.605
147,24 Mar 2017 03:32:15.655,24 Mar 2017 03:36:50.214,274.559
148,25 Mar 2017 01:15:58.856,25 Mar 2017 01:25:36.634,577.778
149,25 Mar 2017 02:57:09.588,25 Mar 2017 03:05:22.740,493.152
150,26 Mar 2017 02:22:56.411,26 Mar 2017 02:32:47.370,590.959
151,27 Mar 2017 01:49:06.867,27 Mar 2017 01:59:33.978,627.111
152,28 Mar 2017 01:17:39.297,28 Mar 2017 01:25:47.846,488.549
153,28 Mar 2017 02:57:40.519,28 Mar 2017 03:04:09.074,388.555
154,28 Mar 2017 12:34:28.272,28 Mar 2017 12:38:45.004,256.733
155,29 Mar 2017 02:23:03.913,29 Mar 2017 02:32:05.775,541.862
156,30 Mar 2017 01:49:01.603,30 Mar 2017 01:59:13.494,611.891
157,31 Mar 2017 01:20:42.046,31 Mar 2017 01:25:46.566,304.520
158,31 Mar 2017 02:58:54.172,31 Mar 2017 03:02:06.888,192.716
159,31 Mar 2017 12:32:43.986,31 Mar 2017 12:39:42.053,418.068
160,1 Apr 2017 02:23:22.497,1 Apr 2017 02:31:07.611,465.114
161,2 Apr 2017 01:49:03.134,2 Apr 2017 01:58:40.863,577.729
162,3 Apr 2017 01:23:44.145,3 Apr 2017 01:25:33.672,109.527
163,3 Apr 2017 12:31:36.035,3 Apr 2017 12:40:07.817,511.782
164,4 Apr 2017 02:24:01.102,4 Apr 2017 02:29:43.772,342.671
165,4 Apr 2017 11:59:54.149,4 Apr 2017 12:05:13.772,319.623
166,5 Apr 2017 01:49:13.241,5 Apr 2017 01:57:54.243,521.002
167,6 Apr 2017 12:30:47.198,6 Apr 2017 12:39:35.432,528.234
168,7 Apr 2017 11:58:24.875,7 Apr 2017 12:05:56.711,451.836
169,8 Apr 2017 01:49:36.224,8 Apr 2017 01:56:49.219,432.995
170,8 Apr 2017 11:27:46.628,8 Apr 2017 11:30:05.204,138.576
171,9 Apr 2017 12:30:12.425,9 Apr 2017 12:34:54.548,282.124
172,10 Apr 2017 11:57:23.450,10 Apr 2017 12:06:16.776,533.326
173,11 Apr 2017 01:50:25.702,11 Apr 2017 01:55:11.992,286.290
174,11 Apr 2017 11:25:26.204,11 Apr 2017 11:31:35.028,368.824
175,12 Apr 2017 12:29:49.620,12 Apr 2017 12:30:18.332,28.712
176,13 Apr 2017 11:56:39.012,13 Apr 2017 12:06:24.655,585.644
177,14 Apr 2017 11:24:07.474,14 Apr 2017 11:32:08.283,480.809
178,15 Apr 2017 10:52:51.472,15 Apr 2017 10:56:51.393,239.921
179,16 Apr 2017 11:56:07.769,16 Apr 2017 12:06:24.016,616.247
180,17 Apr 2017 11:23:11.639,17 Apr 2017 11:32:23.557,551.918
181,18 Apr 2017 10:51:01.913,18 Apr 2017 10:57:51.259,409.346
182,19 Apr 2017 11:55:48.142,19 Apr 2017 12:06:16.396,628.253
183,20 Apr 2017 11:22:31.217,20 Apr 2017 11:32:28.164,596.947
184,21 Apr 2017 10:49:51.337,21 Apr 2017 10:58:17.191,505.854
185,22 Apr 2017 10:18:13.288,22 Apr 2017 10:23:19.246,305.958
186,22 Apr 2017 11:55:39.653,22 Apr 2017 12:06:02.269,622.616
187,23 Apr 2017 11:22:03.338,23 Apr 2017 11:32:24.879,621.541
188,24 Apr 2017 10:49:00.403,24 Apr 2017 10:58:28.328,567.925
189,25 Apr 2017 10:16:40.033,25 Apr 2017 10:24:03.678,443.645
190,25 Apr 2017 11:55:42.684,25 Apr 2017 12:05:41.333,598.649
191,26 Apr 2017 09:46:18.635,26 Apr 2017 09:47:55.284,96.650
192,26 Apr 2017 11:21:46.815,26 Apr 2017 11:32:14.857,628.041
193,27 Apr 2017 10:48:23.712,27 Apr 2017 10:58:29.925,606.213
194,28 Apr 2017 10:15:36.122,28 Apr 2017 10:24:23.739,527.618
195,28 Apr 2017 11:55:58.633,28 Apr 2017 12:05:12.337,553.704
196,29 Apr 2017 09:43:41.929,29 Apr 2017 09:49:38.878,356.949
197,29 Apr 2017 11:21:41.446,29 Apr 2017 11:31:58.322,616.876
198,30 Apr 2017 10:47:59.057,30 Apr 2017 10:58:24.115,625.058
199,1 May 2017 10:14:49.592,1 May 2017 10:24:31.214,581.622
200,1 May 2017 11:56:30.737,1 May 2017 12:03:52.902,442.165
201,2 May 2017 09:42:19.830,2 May 2017 09:50:12.992,473.163
202,2 May 2017 11:21:47.888,2 May 2017 11:31:34.725,586.837
203,3 May 2017 09:11:10.757,3 May 2017 09:14:49.136,218.378
204,3 May 2017 10:47:45.596,3 May 2017 10:58:11.733,626.137
205,4 May 2017 10:14:16.402,4 May 2017 10:24:30.018,613.616
206,4 May 2017 11:57:27.346,4 May 2017 12:00:16.639,169.294
207,5 May 2017 09:41:21.592,5 May 2017 09:50:28.155,546.564
208,5 May 2017 11:22:07.974,5 May 2017 11:31:02.392,534.418
209,6 May 2017 09:09:14.426,6 May 2017 09:15:53.244,398.818
210,6 May 2017 10:47:45.878,6 May 2017 10:57:52.767,606.889
211,7 May 2017 10:14:34.924,7 May 2017 10:24:21.787,586.862
212,8 May 2017 09:41:22.261,8 May 2017 09:50:32.342,550.082
213,8 May 2017 11:22:45.917,8 May 2017 11:30:17.366,451.448
214,9 May 2017 09:08:08.050,9 May 2017 09:16:19.668,491.618
215,9 May 2017 10:48:36.977,9 May 2017 10:57:26.373,529.396
216,10 May 2017 08:36:27.406,10 May 2017 08:41:17.077,289.671
217,10 May 2017 10:15:21.263,10 May 2017 10:24:07.064,525.801
218,11 May 2017 09:42:04.260,11 May 2017 09:50:28.523,504.263
219,11 May 2017 11:23:53.923,11 May 2017 11:29:07.771,313.849
220,12 May 2017 09:08:46.082,12 May 2017 09:16:30.623,464.540
221,12 May 2017 10:49:14.737,12 May 2017 10:56:50.387,455.650
222,13 May 2017 08:35:26.816,13 May 2017 08:42:03.715,396.899
223,13 May 2017 10:15:55.398,13 May 2017 10:23:45.606,470.208
224,14 May 2017 09:42:35.057,14 May 2017 09:50:17.933,462.876
225,15 May 2017 09:09:13.784,15 May 2017 09:16:31.803,438.020
226,15 May 2017 10:49:42.227,15 May 2017 10:55:59.490,377.262
227,16 May 2017 08:35:51.641,16 May 2017 08:42:24.044,392.403
228,16 May 2017 10:16:20.028,16 May 2017 10:23:16.249,416.221
229,17 May 2017 08:02:28.685,17 May 2017 08:07:35.662,306.977
230,17 May 2017 09:42:57.022,17 May 2017 09:50:00.870,423.848
231,18 May 2017 09:09:33.250,18 May 2017 09:16:25.497,412.247
232,18 May 2017 10:50:27.066,18 May 2017 10:54:34.537,247.471
233,19 May 2017 08:36:08.767,19 May 2017 08:42:31.298,382.531
234,19 May 2017 10:16:36.990,19 May 2017 10:22:36.181,359.191
235,20 May 2017 08:02:43.603,20 May 2017 08:08:11.081,327.478
236,20 May 2017 09:43:11.785,20 May 2017 09:49:36.839,385.054
237,21 May 2017 07:29:25.655,21 May 2017 07:32:38.620,192.965
238,21 May 2017 09:09:45.944,21 May 2017 09:16:12.600,386.656
239,22 May 2017 08:36:19.494,22 May 2017 08:42:29.695,370.201
240,22 May 2017 10:16:47.579,22 May 2017 10:21:38.054,290.475
241,23 May 2017 08:02:52.465,23 May 2017 08:08:26.356,333.892
242,23 May 2017 09:43:20.513,23 May 2017 09:49:04.300,343.788
243,24 May 2017 07:29:24.890,24 May 2017 07:33:48.604,263.714
244,24 May 2017 09:09:52.903,24 May 2017 09:15:53.171,360.268
245,25 May 2017 08:36:24.761,25 May 2017 08:42:20.994,356.232
246,25 May 2017 10:17:15.917,25 May 2017 10:19:44.267,148.350
247,26 May 2017 08:02:56.119,26 May 2017 08:08:30.287,334.168
248,26 May 2017 09:43:24.050,26 May 2017 09:48:19.568,295.518
249,27 May 2017 07:29:26.985,27 May 2017 07:34:15.825,288.840
250,27 May 2017 09:09:54.888,27 May 2017 09:15:26.455,331.567
251,28 May 2017 06:55:57.385,28 May 2017 06:59:07.992,190.607
252,28 May 2017 08:36:25.258,28 May 2017 08:42:05.811,340.553
253,29 May 2017 08:02:55.174,29 May 2017 08:08:26.078,330.904
254,29 May 2017 09:43:23.004,29 May 2017 09:47:12.039,229.035
255,30 May 2017 07:29:24.653,30 May 2017 07:34:26.784,302.131
256,30 May 2017 09:09:52.456,30 May 2017 09:14:50.437,297.982
257,31 May 2017 06:55:53.700,31 May 2017 06:59:57.484,243.784
258,31 May 2017 08:36:21.476,31 May 2017 08:41:43.974,322.498
259,1 Jun 2017 08:02:50.083,1 Jun 2017 08:08:15.058,324.976
260,2 Jun 2017 07:29:18.282,2 Jun 2017 07:34:27.691,309.409
261,2 Jun 2017 09:09:45.992,2 Jun 2017 09:14:00.239,254.247
262,3 Jun 2017 06:55:46.083,3 Jun 2017 07:00:18.289,272.207
263,3 Jun 2017 08:36:13.768,3 Jun 2017 08:41:14.416,300.647
264,4 Jun 2017 06:22:13.492,4 Jun 2017 06:25:26.101,192.609
265,4 Jun 2017 08:02:41.153,4 Jun 2017 08:07:57.590,316.437
266,5 Jun 2017 07:29:08.152,5 Jun 2017 07:34:21.000,312.848
267,5 Jun 2017 09:09:35.776,5 Jun 2017 09:12:39.365,183.590
268,6 Jun 2017 06:55:34.769,6 Jun 2017 07:00:25.458,290.689
269,6 Jun 2017 08:36:02.369,6 Jun 2017 08:40:34.529,272.160
270,7 Jun 2017 06:22:01.009,7 Jun 2017 06:26:03.158,242.149
271,7 Jun 2017 08:02:28.586,7 Jun 2017 08:07:33.259,304.673
272,8 Jun 2017 05:48:26.875,8 Jun 2017 05:50:20.156,113.281
273,8 Jun 2017 07:28:54.427,8 Jun 2017 07:34:07.702,313.275
274,9 Jun 2017 06:55:19.894,9 Jun 2017 07:00:23.564,303.669
275,9 Jun 2017 08:35:47.410,9 Jun 2017 08:39:37.676,230.266
276,10 Jun 2017 06:21:44.988,10 Jun 2017 06:26:18.691,273.703
277,10 Jun 2017 08:02:12.483,10 Jun 2017 08:07:00.641,288.158
278,11 Jun 2017 05:48:09.708,11 Jun 2017 05:51:37.918,208.211
279,11 Jun 2017 07:28:37.177,11 Jun 2017 07:33:47.921,310.744
280,12 Jun 2017 06:55:01.498,12 Jun 2017 07:00:14.487,312.989
281,12 Jun 2017 08:35:28.930,12 Jun 2017 08:37:54.281,145.352
282,13 Jun 2017 06:21:25.439,13 Jun 2017 06:26:22.469,297.030
283,13 Jun 2017 08:01:52.847,13 Jun 2017 08:06:16.362,263.515
284,14 Jun 2017 05:47:48.998,14 Jun 2017 05:52:06.139,257.141
285,14 Jun 2017 07:28:16.382,14 Jun 2017 07:33:20.981,304.598
286,15 Jun 2017 05:14:12.171,15 Jun 2017 05:16:52.440,160.268
287,15 Jun 2017 06:54:39.531,15 Jun 2017 06:59:58.931,319.400
288,16 Jun 2017 06:21:02.285,16 Jun 2017 06:26:17.940,315.655
289,16 Jun 2017 08:01:29.605,16 Jun 2017 08:05:11.017,221.412
290,17 Jun 2017 05:47:24.641,17 Jun 2017 05:52:17.188,292.548
291,17 Jun 2017 07:27:51.936,17 Jun 2017 07:32:45.029,293.093
292,18 Jun 2017 05:13:46.583,18 Jun 2017 05:17:45.354,238.771
293,18 Jun 2017 06:54:13.852,18 Jun 2017 06:59:36.779,322.927
294,19 Jun 2017 06:20:35.352,19 Jun 2017 06:26:06.548,331.196
295,20 Jun 2017 05:46:56.424,20 Jun 2017 05:52:17.879,321.455
296,20 Jun 2017 07:27:23.624,20 Jun 2017 07:31:55.622,271.998
297,21 Jun 2017 05:13:17.051,21 Jun 2017 05:18:06.749,289.698
298,21 Jun 2017 06:53:44.220,21 Jun 2017 06:59:07.073,322.854
299,22 Jun 2017 04:39:37.222,22 Jun 2017 04:43:10.387,213.165
300,22 Jun 2017 06:20:04.362,22 Jun 2017 06:25:48.715,344.353
301,23 Jun 2017 05:46:24.029,23 Jun 2017 05:52:10.839,346.810
302,23 Jun 2017 07:26:51.125,23 Jun 2017 07:30:38.621,227.495
303,24 Jun 2017 05:12:43.209,24 Jun 2017 05:18:13.883,330.674
304,24 Jun 2017 06:53:10.273,24 Jun 2017 06:58:27.415,317.142
305,25 Jun 2017 04:39:01.875,25 Jun 2017 04:43:49.359,287.484
306,25 Jun 2017 06:19:28.906,25 Jun 2017 06:25:24.112,355.206
307,26 Jun 2017 04:05:44.810,26 Jun 2017 04:07:52.183,127.373
308,26 Jun 2017 05:45:47.009,26 Jun 2017 05:51:57.162,370.153
309,27 Jun 2017 05:12:04.558,27 Jun 2017 05:18:11.714,367.155
310,27 Jun 2017 06:52:31.501,27 Jun 2017 06:57:31.833,300.332
311,28 Jun 2017 04:38:21.525,28 Jun 2017 04:44:05.211,343.685
312,28 Jun 2017 06:18:48.429,28 Jun 2017 06:24:51.425,362.997
313,29 Jun 2017 04:04:37.877,29 Jun 2017 04:09:21.123,283.246
314,29 Jun 2017 05:45:04.741,29 Jun 2017 05:51:37.027,392.286
315,30 Jun 2017 05:11:20.412,30 Jun 2017 05:18:02.260,401.848
316,30 Jun 2017 06:52:19.888,30 Jun 2017 06:55:56.609,216.721
317,1 Jul 2017 04:37:35.395,1 Jul 2017 04:44:08.846,393.451
318,1 Jul 2017 06:18:02.151,1 Jul 2017 06:24:07.571,365.420
319,2 Jul 2017 04:03:49.664,2 Jul 2017 04:09:50.490,360.825
320,2 Jul 2017 05:44:16.368,2 Jul 2017 05:51:09.844,413.476
321,3 Jul 2017 03:30:37.372,3 Jul 2017 03:34:29.832,232.460
322,3 Jul 2017 05:10:29.820,3 Jul 2017 05:17:46.302,436.482
323,4 Jul 2017 04:36:42.451,4 Jul 2017 04:44:03.984,441.533
324,4 Jul 2017 06:17:09.029,4 Jul 2017 06:23:04.236,355.208
325,5 Jul 2017 04:02:54.208,5 Jul 2017 04:10:01.657,427.449
326,5 Jul 2017 05:43:20.725,5 Jul 2017 05:50:33.914,433.190
327,6 Jul 2017 03:29:05.031,6 Jul 2017 03:35:27.006,381.974
328,6 Jul 2017 05:09:31.480,6 Jul 2017 05:17:23.802,472.322
329,7 Jul 2017 04:35:41.228,7 Jul 2017 04:43:52.172,490.945
330,7 Jul 2017 06:19:17.615,7 Jul 2017 06:20:46.478,88.863
331,8 Jul 2017 04:01:49.879,8 Jul 2017 04:10:02.110,492.231
332,8 Jul 2017 05:42:16.165,8 Jul 2017 05:49:45.196,449.031
333,9 Jul 2017 03:27:57.358,9 Jul 2017 03:35:49.092,471.733
334,9 Jul 2017 05:08:23.559,9 Jul 2017 05:16:53.885,510.326
335,10 Jul 2017 02:55:48.309,10 Jul 2017 03:00:47.850,299.541
336,10 Jul 2017 04:34:29.655,10 Jul 2017 04:43:33.929,544.274
337,11 Jul 2017 04:00:34.347,11 Jul 2017 04:09:54.688,560.340
338,11 Jul 2017 05:43:21.306,11 Jul 2017 05:48:31.504,310.198
339,12 Jul 2017 03:26:37.497,12 Jul 2017 03:35:56.192,558.695
340,12 Jul 2017 05:07:42.484,12 Jul 2017 05:16:14.362,511.878
341,13 Jul 2017 02:54:09.099,13 Jul 2017 03:01:29.165,440.066
342,13 Jul 2017 04:33:08.058,13 Jul 2017 04:43:08.979,600.922
343,14 Jul 2017 03:59:11.585,14 Jul 2017 04:09:40.564,628.979
344,15 Jul 2017 03:25:47.878,15 Jul 2017 03:35:53.703,605.825
345,15 Jul 2017 05:08:24.142,15 Jul 2017 05:15:19.851,415.709
346,16 Jul 2017 02:52:59.912,16 Jul 2017 03:01:45.401,525.489
347,16 Jul 2017 04:33:18.603,16 Jul 2017 04:42:36.135,557.532
348,17 Jul 2017 02:24:38.966,17 Jul 2017 02:26:57.439,138.473
349,17 Jul 2017 03:59:01.048,17 Jul 2017 04:09:20.001,618.953
350,18 Jul 2017 03:25:18.146,18 Jul 2017 03:35:43.820,625.674
351,18 Jul 2017 05:09:45.907,18 Jul 2017 05:13:50.833,244.926
352,19 Jul 2017 02:52:08.254,19 Jul 2017 03:01:48.884,580.631
353,19 Jul 2017 04:33:44.909,19 Jul 2017 04:41:52.573,487.664
354,20 Jul 2017 02:22:40.405,20 Jul 2017 02:27:28.240,287.835
355,20 Jul 2017 03:59:02.173,20 Jul 2017 04:08:52.490,590.317
356,21 Jul 2017 03:24:59.538,21 Jul 2017 03:35:27.396,627.858
357,22 Jul 2017 02:51:29.961,22 Jul 2017 03:01:43.651,613.691
358,22 Jul 2017 04:34:34.668,22 Jul 2017 04:40:50.892,376.224
359,23 Jul 2017 02:20:25.795,23 Jul 2017 02:27:39.585,433.790
360,23 Jul 2017 03:59:16.675,23 Jul 2017 04:08:16.471,539.796
361,24 Jul 2017 03:24:52.065,24 Jul 2017 03:35:04.469,612.404
362,25 Jul 2017 02:51:03.286,25 Jul 2017 03:01:31.379,628.092
363,25 Jul 2017 04:36:26.305,25 Jul 2017 04:38:53.054,146.750
364,26 Jul 2017 02:17:55.610,26 Jul 2017 02:27:39.799,584.188
365,26 Jul 2017 03:59:48.471,26 Jul 2017 04:07:28.269,459.798
366,27 Jul 2017 03:24:56.616,27 Jul 2017 03:34:34.260,577.644
367,28 Jul 2017 02:50:47.639,28 Jul 2017 03:01:12.658,625.019
368,29 Jul 2017 02:17:12.235,29 Jul 2017 02:27:31.960,619.726
369,29 Jul 2017 04:00:48.509,29 Jul 2017 04:06:17.258,328.750
370,30 Jul 2017 03:25:15.382,30 Jul 2017 03:33:54.759,519.377
371,31 Jul 2017 02:50:43.286,31 Jul 2017 03:00:47.292,604.006
372,1 Aug 2017 02:16:48.549,1 Aug 2017 02:27:17.355,628.806
373,2 Aug 2017 03:25:53.498,2 Aug 2017 03:33:01.100,427.601
374,3 Aug 2017 02:50:51.423,3 Aug 2017 03:00:14.218,562.795
375,4 Aug 2017 02:16:35.865,4 Aug 2017 02:26:56.322,620.457
376,5 Aug 2017 03:27:07.697,5 Aug 2017 03:31:36.885,269.188
377,6 Aug 2017 02:51:14.851,6 Aug 2017 02:59:30.840,495.989
378,7 Aug 2017 02:16:34.712,7 Aug 2017 02:26:28.441,593.729
379,9 Aug 2017 02:52:00.460,9 Aug 2017 02:58:30.556,390.096
380,9 Aug 2017 11:41:19.590,9 Aug 2017 11:46:49.081,329.490
381,10 Aug 2017 02:16:46.645,10 Aug 2017 02:25:52.292,545.647
382,12 Aug 2017 02:53:37.768,12 Aug 2017 02:56:44.216,186.449
383,12 Aug 2017 11:40:08.163,12 Aug 2017 11:47:47.525,459.361
384,13 Aug 2017 02:17:15.260,13 Aug 2017 02:25:04.521,469.261
385,13 Aug 2017 11:08:41.829,13 Aug 2017 11:11:10.730,148.901
386,14 Aug 2017 12:12:31.573,14 Aug 2017 12:15:10.873,159.300
387,15 Aug 2017 11:39:18.936,15 Aug 2017 11:48:17.664,538.728
388,16 Aug 2017 02:18:10.169,16 Aug 2017 02:23:55.821,345.652
389,16 Aug 2017 11:06:43.747,16 Aug 2017 11:12:59.666,375.919
390,17 Aug 2017 12:12:07.269,17 Aug 2017 12:18:01.340,354.071
391,18 Aug 2017 11:38:41.444,18 Aug 2017 11:48:30.288,588.843
392,19 Aug 2017 11:05:40.587,19 Aug 2017 11:13:47.295,486.707
393,20 Aug 2017 01:48:32.390,20 Aug 2017 01:50:35.534,123.145
394,20 Aug 2017 10:33:41.367,20 Aug 2017 10:37:46.167,244.800
395,20 Aug 2017 12:11:49.083,20 Aug 2017 12:20:51.947,542.864
396,21 Aug 2017 11:38:12.051,21 Aug 2017 11:48:29.275,617.224
397,22 Aug 2017 11:04:55.062,22 Aug 2017 11:14:11.297,556.235
398,23 Aug 2017 01:44:24.125,23 Aug 2017 01:49:15.392,291.267
399,23 Aug 2017 10:32:10.461,23 Aug 2017 10:39:05.299,414.838
400,23 Aug 2017 12:11:37.070,23 Aug 2017 12:21:40.498,603.428
401,24 Aug 2017 11:37:49.225,24 Aug 2017 11:48:16.336,627.111
402,25 Aug 2017 11:04:19.848,25 Aug 2017 11:14:19.299,599.451
403,26 Aug 2017 10:31:13.495,26 Aug 2017 10:39:44.234,510.739
404,26 Aug 2017 12:11:32.085,26 Aug 2017 12:20:56.176,564.090
405,27 Aug 2017 09:58:55.401,27 Aug 2017 10:04:04.690,309.288
406,27 Aug 2017 11:37:32.447,27 Aug 2017 11:47:52.075,619.628
407,28 Aug 2017 11:03:52.130,28 Aug 2017 11:14:14.335,622.206
408,29 Aug 2017 10:30:31.113,29 Aug 2017 10:40:02.710,571.597
409,29 Aug 2017 12:11:36.336,29 Aug 2017 12:19:57.292,500.956
410,30 Aug 2017 09:57:38.756,30 Aug 2017 10:05:06.993,448.237
411,30 Aug 2017 11:37:22.003,30 Aug 2017 11:47:16.254,594.251
412,31 Aug 2017 09:26:37.450,31 Aug 2017 09:28:03.280,85.830
413,31 Aug 2017 11:03:30.739,31 Aug 2017 11:13:57.722,626.983
414,1 Sep 2017 10:29:57.948,1 Sep 2017 10:40:06.352,608.404
415,1 Sep 2017 12:11:55.243,1 Sep 2017 12:18:38.286,403.044
416,2 Sep 2017 09:56:46.689,2 Sep 2017 10:05:38.596,531.906
417,2 Sep 2017 11:37:19.050,2 Sep 2017 11:46:27.671,548.622
418,3 Sep 2017 09:24:15.305,3 Sep 2017 09:30:14.985,359.680
419,3 Sep 2017 11:03:15.405,3 Sep 2017 11:13:29.808,614.403
420,4 Sep 2017 10:29:31.818,4 Sep 2017 10:39:55.845,624.027
421,4 Sep 2017 12:12:49.135,4 Sep 2017 12:16:38.643,229.508
422,5 Sep 2017 09:56:07.030,5 Sep 2017 10:05:09.004,541.974
423,5 Sep 2017 11:37:26.409,5 Sep 2017 11:45:23.420,477.012
424,6 Sep 2017 09:23:08.094,6 Sep 2017 09:30:31.579,443.486
425,6 Sep 2017 11:03:06.629,6 Sep 2017 11:10:54.917,468.288
426,7 Sep 2017 08:51:18.361,7 Sep 2017 08:54:52.848,214.487
427,7 Sep 2017 10:29:11.858,7 Sep 2017 10:36:25.094,433.236
428,8 Sep 2017 09:55:35.744,8 Sep 2017 10:02:00.876,385.133
429,8 Sep 2017 11:37:51.499,8 Sep 2017 11:42:25.044,273.544
430,9 Sep 2017 09:22:20.024,9 Sep 2017 09:27:41.264,321.240
431,9 Sep 2017 11:03:05.937,9 Sep 2017 11:08:05.733,299.796
432,10 Sep 2017 08:49:38.439,10 Sep 2017 08:53:25.522,227.083
433,10 Sep 2017 10:28:58.008,10 Sep 2017 10:33:50.248,292.240
434,11 Sep 2017 09:55:11.135,11 Sep 2017 09:59:38.035,266.899
435,11 Sep 2017 11:39:14.765,11 Sep 2017 11:40:02.985,48.220
436,12 Sep 2017 09:21:42.775,12 Sep 2017 09:25:28.659,225.884
437,12 Sep 2017 11:03:16.974,12 Sep 2017 11:05:53.800,156.826
438,13 Sep 2017 08:48:38.116,13 Sep 2017 08:51:21.761,163.645
439,13 Sep 2017 10:28:51.034,13 Sep 2017 10:31:47.071,176.037
440,14 Sep 2017 08:16:26.032,14 Sep 2017 08:17:17.062,51.030
441,14 Sep 2017 09:54:52.600,14 Sep 2017 09:57:42.518,169.918
442,15 Sep 2017 09:21:13.234,15 Sep 2017 09:23:39.902,146.668
443,15 Sep 2017 11:03:50.303,15 Sep 2017 11:04:05.495,15.192
444,16 Sep 2017 08:47:53.414,16 Sep 2017 08:49:39.012,105.598
445,16 Sep 2017 10:28:52.897,16 Sep 2017 10:30:04.724,71.827
446,17 Sep 2017 08:15:03.567,17 Sep 2017 08:15:39.686,36.119
447,17 Sep 2017 09:54:40.315,17 Sep 2017 09:56:05.508,85.193
448,18 Sep 2017 09:20:50.107,18 Sep 2017 09:22:07.689,77.582
449,19 Sep 2017 08:47:18.319,19 Sep 2017 08:48:11.142,52.823
450,20 Sep 2017 08:14:08.593,20 Sep 2017 08:14:15.754,7.161
451,20 Sep 2017 09:54:35.298,20 Sep 2017 09:54:41.840,6.541
452,21 Sep 2017 09:20:33.016,21 Sep 2017 09:20:47.591,14.575
453,22 Sep 2017 08:46:50.422,22 Sep 2017 08:46:54.309,3.887

"Access","Start Time (UTCG)","Stop Time (UTCG)","Duration (sec)"
1,14 Oct 2016 10:40:20.344,14 Oct 2016 10:47:57.058,456.714
2,14 Oct 2016 12:19:35.098,14 Oct 2016 12:29:27.859,592.761
3,15 Oct 2016 00:31:40.629,15 Oct 2016 00:38:46.547,425.918
4,15 Oct 2016 10:09:36.798,15 Oct 2016 10:12:21.697,164.898
5,15 Oct 2016 11:45:42.565,15 Oct 2016 11:56:09.246,626.681
6,16 Oct 2016 11:12:22.712,16 Oct 2016 11:22:32.223,609.511
7,16 Oct 2016 12:55:18.740,16 Oct 2016 13:01:46.104,387.364
8,17 Oct 2016 10:39:37.527,17 Oct 2016 10:48:34.703,537.175
9,17 Oct 2016 12:20:12.863,17 Oct 2016 12:29:16.322,543.458
10,18 Oct 2016 00:32:52.937,18 Oct 2016 00:37:21.962,269.025
11,18 Oct 2016 10:07:42.164,18 Oct 2016 10:14:01.939,379.775
12,18 Oct 2016 11:45:58.279,18 Oct 2016 11:56:10.869,612.591
13,19 Oct 2016 11:12:18.895,19 Oct 2016 11:22:44.804,625.909
14,19 Oct 2016 12:57:27.709,19 Oct 2016 13:00:19.317,171.609
15,20 Oct 2016 10:39:12.055,20 Oct 2016 10:49:00.361,588.306
16,20 Oct 2016 12:21:08.489,20 Oct 2016 12:28:52.657,464.168
17,21 Oct 2016 10:07:16.114,21 Oct 2016 10:14:52.086,455.972
18,21 Oct 2016 11:47:59.213,21 Oct 2016 11:56:05.167,485.954
19,22 Oct 2016 09:36:19.236,22 Oct 2016 09:39:49.273,210.036
20,22 Oct 2016 11:16:55.193,22 Oct 2016 11:22:50.819,355.626
21,23 Oct 2016 10:45:00.376,23 Oct 2016 10:49:17.623,257.247
22,23 Oct 2016 12:25:34.056,23 Oct 2016 12:28:06.293,152.238
23,24 Oct 2016 10:12:43.947,24 Oct 2016 10:15:24.998,161.051
24,24 Oct 2016 11:53:16.501,24 Oct 2016 11:55:50.087,153.586
25,25 Oct 2016 09:40:14.559,25 Oct 2016 09:41:02.447,47.888
26,25 Oct 2016 11:20:46.373,25 Oct 2016 11:22:50.103,123.731
27,26 Oct 2016 10:48:07.550,26 Oct 2016 10:49:27.956,80.406
28,27 Oct 2016 10:15:22.259,27 Oct 2016 10:15:47.549,25.290
29,7 Jan 2017 13:58:18.485,7 Jan 2017 14:03:25.179,306.693
30,10 Jan 2017 13:57:26.982,10 Jan 2017 14:04:56.499,449.517
31,11 Jan 2017 13:26:27.700,11 Jan 2017 13:28:08.679,100.979
32,13 Jan 2017 13:57:01.423,13 Jan 2017 14:05:55.811,534.388
33,14 Jan 2017 13:24:36.828,14 Jan 2017 13:30:43.644,366.816
34,16 Jan 2017 13:56:48.905,16 Jan 2017 14:06:36.371,587.466
35,17 Jan 2017 13:23:57.210,17 Jan 2017 13:32:01.006,483.796
36,18 Jan 2017 12:52:08.571,18 Jan 2017 12:56:06.249,237.678
37,19 Jan 2017 13:56:45.247,19 Jan 2017 14:07:02.630,617.382
38,20 Jan 2017 02:52:42.618,20 Jan 2017 02:53:21.230,38.612
39,20 Jan 2017 13:23:36.968,20 Jan 2017 13:32:53.065,556.097
40,21 Jan 2017 02:19:12.053,21 Jan 2017 02:21:25.975,133.922
41,21 Jan 2017 12:51:00.878,21 Jan 2017 12:57:55.865,414.987
42,22 Jan 2017 01:46:14.587,22 Jan 2017 01:49:48.176,213.589
43,22 Jan 2017 03:27:34.523,22 Jan 2017 03:30:25.006,170.484
44,22 Jan 2017 13:56:48.738,22 Jan 2017 14:07:16.488,627.751
45,23 Jan 2017 01:13:59.004,23 Jan 2017 01:18:44.390,285.385
46,23 Jan 2017 02:53:05.857,23 Jan 2017 02:59:25.289,379.432
47,23 Jan 2017 13:23:27.865,23 Jan 2017 13:33:28.384,600.518
48,24 Jan 2017 00:43:32.018,24 Jan 2017 00:45:35.778,123.760
49,24 Jan 2017 02:19:15.449,24 Jan 2017 02:29:42.684,627.235
50,24 Jan 2017 12:50:29.687,24 Jan 2017 12:59:02.781,513.093
51,25 Jan 2017 01:45:57.615,25 Jan 2017 01:56:04.799,607.184
52,25 Jan 2017 03:28:44.550,25 Jan 2017 03:35:24.765,400.215
53,25 Jan 2017 12:18:18.322,25 Jan 2017 12:23:34.369,316.046
54,25 Jan 2017 13:56:58.809,25 Jan 2017 14:07:18.599,619.791
55,26 Jan 2017 01:13:14.813,26 Jan 2017 01:22:06.067,531.254
56,26 Jan 2017 02:53:42.828,26 Jan 2017 03:02:52.103,549.275
57,26 Jan 2017 13:23:26.851,26 Jan 2017 13:33:50.250,623.399
58,27 Jan 2017 00:41:23.660,27 Jan 2017 00:47:30.300,366.640
59,27 Jan 2017 02:19:30.644,27 Jan 2017 02:29:45.451,614.806
60,27 Jan 2017 12:50:13.901,27 Jan 2017 12:59:48.502,574.601
61,28 Jan 2017 01:45:53.279,28 Jan 2017 01:56:18.526,625.247
62,28 Jan 2017 03:30:43.894,28 Jan 2017 03:34:08.120,204.225
63,28 Jan 2017 12:17:28.752,28 Jan 2017 12:25:03.748,454.996
64,28 Jan 2017 13:57:15.786,28 Jan 2017 14:07:08.687,592.901
65,29 Jan 2017 01:12:48.524,29 Jan 2017 01:22:33.149,584.625
66,29 Jan 2017 02:54:37.158,29 Jan 2017 03:02:30.317,473.159
67,29 Jan 2017 11:46:17.981,29 Jan 2017 11:48:27.954,129.973
68,29 Jan 2017 13:23:32.679,29 Jan 2017 13:34:00.051,627.373
69,30 Jan 2017 00:40:22.538,30 Jan 2017 00:48:23.294,480.755
70,30 Jan 2017 02:19:58.410,30 Jan 2017 02:29:40.985,582.575
71,30 Jan 2017 12:50:07.880,30 Jan 2017 13:00:18.946,611.066
72,31 Jan 2017 01:46:00.745,31 Jan 2017 01:56:25.645,624.900
73,31 Jan 2017 12:17:04.043,31 Jan 2017 12:26:02.235,538.192
