DaytonaBeach.csv

"Access","Start Time (UTCG)","Stop Time (UTCG)","Duration (sec)"
1,13 Oct 2016 23:10:54.805,13 Oct 2016 23:15:32.811,278.006
2,14 Oct 2016 10:17:47.668,14 Oct 2016 10:28:07.589,619.920
3,15 Oct 2016 09:44:21.325,15 Oct 2016 09:54:36.597,615.272
4,16 Oct 2016 09:11:36.198,16 Oct 2016 09:20:36.699,540.500
5,16 Oct 2016 10:52:50.780,16 Oct 2016 11:00:39.989,469.208
6,17 Oct 2016 08:39:54.325,17 Oct 2016 08:45:46.502,352.177
7,17 Oct 2016 10:18:11.710,17 Oct 2016 10:28:01.652,589.942
8,18 Oct 2016 09:44:21.396,18 Oct 2016 09:54:47.219,625.823
9,19 Oct 2016 09:11:10.548,19 Oct 2016 09:21:05.579,595.031
10,19 Oct 2016 10:54:23.229,19 Oct 2016 10:59:38.468,315.239
11,20 Oct 2016 08:38:45.336,20 Oct 2016 08:46:50.785,485.449
12,20 Oct 2016 10:18:53.029,20 Oct 2016 10:27:43.108,530.079
13,21 Oct 2016 08:08:35.804,21 Oct 2016 08:11:07.704,151.900
14,21 Oct 2016 09:49:20.331,21 Oct 2016 09:54:48.135,327.804
15,22 Oct 2016 09:18:23.577,22 Oct 2016 09:21:22.803,179.226
16,23 Oct 2016 08:46:31.112,23 Oct 2016 08:47:29.715,58.603
17,23 Oct 2016 10:27:04.909,23 Oct 2016 10:27:05.185,0.276
18,13 Jan 2017 12:03:46.373,13 Jan 2017 12:08:48.779,302.405
19,16 Jan 2017 12:02:42.376,16 Jan 2017 12:10:25.442,463.066
20,19 Jan 2017 01:25:14.610,19 Jan 2017 01:27:20.521,125.911
21,19 Jan 2017 12:02:11.927,19 Jan 2017 12:11:23.550,551.623
22,20 Jan 2017 00:51:34.768,20 Jan 2017 00:55:13.151,218.383
23,20 Jan 2017 11:30:00.274,20 Jan 2017 11:36:12.547,372.273
24,21 Jan 2017 00:18:34.493,21 Jan 2017 00:23:17.180,282.687
25,21 Jan 2017 02:00:53.193,21 Jan 2017 02:03:52.304,179.110
26,21 Jan 2017 23:46:24.850,21 Jan 2017 23:51:38.066,313.216
27,22 Jan 2017 01:25:49.044,22 Jan 2017 01:32:14.761,385.717
28,22 Jan 2017 12:01:58.168,22 Jan 2017 12:12:00.246,602.078
29,23 Jan 2017 00:51:43.921,23 Jan 2017 01:01:11.191,567.270
30,23 Jan 2017 11:29:11.978,23 Jan 2017 11:37:31.839,499.861
31,24 Jan 2017 00:18:19.484,24 Jan 2017 00:28:33.428,613.944
32,24 Jan 2017 02:03:29.775,24 Jan 2017 02:05:25.277,115.502
33,24 Jan 2017 10:57:48.059,24 Jan 2017 11:01:27.612,219.552
34,24 Jan 2017 23:45:36.565,24 Jan 2017 23:54:32.376,535.811
35,25 Jan 2017 01:26:43.957,25 Jan 2017 01:34:40.989,477.032
36,25 Jan 2017 12:01:56.116,25 Jan 2017 12:12:20.711,624.595
37,25 Jan 2017 23:13:59.068,25 Jan 2017 23:19:38.887,339.820
38,26 Jan 2017 00:52:07.739,26 Jan 2017 01:02:00.863,593.123
39,26 Jan 2017 11:28:48.363,26 Jan 2017 11:38:21.562,573.199
40,27 Jan 2017 00:18:19.407,27 Jan 2017 00:28:45.486,626.079
41,27 Jan 2017 10:56:21.985,27 Jan 2017 11:03:28.194,426.209
42,27 Jan 2017 23:45:10.485,27 Jan 2017 23:55:02.941,592.456
43,28 Jan 2017 01:28:13.579,28 Jan 2017 01:33:43.553,329.974
44,28 Jan 2017 12:02:04.023,28 Jan 2017 12:12:26.781,622.758
45,28 Jan 2017 23:12:47.852,28 Jan 2017 23:20:46.618,478.765
46,29 Jan 2017 00:52:48.597,29 Jan 2017 01:01:44.058,535.462
47,29 Jan 2017 11:28:39.094,29 Jan 2017 11:38:52.291,613.197
48,30 Jan 2017 00:18:33.571,30 Jan 2017 00:28:47.820,614.249
49,30 Jan 2017 10:55:44.541,30 Jan 2017 11:04:35.014,530.473
50,30 Jan 2017 23:45:00.902,30 Jan 2017 23:55:21.631,620.729
51,31 Jan 2017 10:23:49.756,31 Jan 2017 10:29:04.691,314.935
52,31 Jan 2017 12:02:21.884,31 Jan 2017 12:12:18.471,596.588
53,31 Jan 2017 23:12:08.417,31 Jan 2017 23:21:27.529,559.112
54,1 Feb 2017 00:53:53.012,1 Feb 2017 01:01:08.567,435.555
55,1 Feb 2017 11:28:40.681,1 Feb 2017 11:39:07.681,626.999
56,2 Feb 2017 00:19:02.963,2 Feb 2017 00:28:39.507,576.544
57,2 Feb 2017 10:55:26.659,2 Feb 2017 11:05:17.474,590.815
58,2 Feb 2017 23:45:05.810,2 Feb 2017 23:55:30.361,624.551
59,3 Feb 2017 10:22:48.743,3 Feb 2017 10:30:38.494,469.750
60,3 Feb 2017 12:02:51.424,3 Feb 2017 12:11:53.960,542.536
61,3 Feb 2017 23:11:48.500,3 Feb 2017 23:21:53.644,605.144
62,4 Feb 2017 00:55:46.222,4 Feb 2017 00:59:49.468,243.246
63,4 Feb 2017 09:52:36.622,4 Feb 2017 09:53:19.896,43.274
64,4 Feb 2017 11:28:52.056,4 Feb 2017 11:39:08.859,616.803
65,5 Feb 2017 00:19:50.966,5 Feb 2017 00:28:17.307,506.341
66,5 Feb 2017 10:55:21.501,5 Feb 2017 11:05:42.639,621.137
67,5 Feb 2017 23:45:25.111,5 Feb 2017 23:55:29.234,604.123
68,6 Feb 2017 10:22:19.559,6 Feb 2017 10:31:35.471,555.913
69,6 Feb 2017 12:03:37.719,6 Feb 2017 12:11:08.025,450.306
70,6 Feb 2017 23:11:44.108,6 Feb 2017 23:22:08.812,624.703
71,7 Feb 2017 09:50:05.457,7 Feb 2017 09:56:27.439,381.982
72,7 Feb 2017 11:29:13.761,7 Feb 2017 11:38:55.262,581.501
73,8 Feb 2017 00:21:07.219,8 Feb 2017 00:27:31.832,384.613
74,8 Feb 2017 10:55:26.620,8 Feb 2017 11:05:53.072,626.452
75,8 Feb 2017 23:46:00.455,8 Feb 2017 23:55:16.679,556.224
76,9 Feb 2017 10:22:06.666,9 Feb 2017 10:32:11.446,604.780
77,9 Feb 2017 12:04:58.658,9 Feb 2017 12:09:42.509,283.851
78,9 Feb 2017 23:11:54.001,9 Feb 2017 23:22:14.229,620.228
79,10 Feb 2017 09:49:19.219,10 Feb 2017 09:57:44.801,505.582
80,10 Feb 2017 11:29:48.370,10 Feb 2017 11:38:24.196,515.826
81,11 Feb 2017 00:24:01.335,11 Feb 2017 00:25:13.836,72.502
82,11 Feb 2017 09:17:49.248,11 Feb 2017 09:21:47.176,237.928
83,11 Feb 2017 10:55:41.536,11 Feb 2017 11:05:49.277,607.742
84,11 Feb 2017 23:46:56.645,11 Feb 2017 23:54:48.089,471.445
85,12 Feb 2017 10:22:05.340,12 Feb 2017 10:32:31.330,625.990
86,12 Feb 2017 23:12:18.627,12 Feb 2017 23:22:09.467,590.841
87,13 Feb 2017 09:48:56.712,13 Feb 2017 09:58:33.548,576.836
88,13 Feb 2017 11:30:43.303,13 Feb 2017 11:37:28.044,404.741
89,14 Feb 2017 09:16:28.498,14 Feb 2017 09:23:42.538,434.040
90,14 Feb 2017 10:56:07.384,14 Feb 2017 11:05:30.071,562.687
91,14 Feb 2017 23:48:28.933,14 Feb 2017 23:53:48.495,319.562
92,15 Feb 2017 10:22:13.935,15 Feb 2017 10:32:36.851,622.915
93,15 Feb 2017 23:13:00.482,15 Feb 2017 23:21:52.160,531.678
94,16 Feb 2017 09:48:48.270,16 Feb 2017 09:59:03.585,615.315
95,16 Feb 2017 11:32:35.034,16 Feb 2017 11:35:30.046,175.012
96,17 Feb 2017 09:15:52.642,17 Feb 2017 09:24:47.884,535.242
97,17 Feb 2017 10:56:47.876,17 Feb 2017 11:04:51.595,483.719
98,18 Feb 2017 08:43:54.497,18 Feb 2017 08:49:21.459,326.962
99,18 Feb 2017 10:22:32.536,18 Feb 2017 10:25:14.425,161.889
100,18 Feb 2017 10:27:04.439,18 Feb 2017 10:32:27.931,323.492
101,18 Feb 2017 23:14:06.417,18 Feb 2017 23:21:15.668,429.251
102,19 Feb 2017 09:48:50.588,19 Feb 2017 09:49:11.887,21.299
103,19 Feb 2017 09:57:23.146,19 Feb 2017 09:59:18.376,115.230
104,21 Feb 2017 23:16:04.187,21 Feb 2017 23:19:52.576,228.390
105,24 Apr 2017 04:16:32.773,24 Apr 2017 04:16:38.830,6.058
106,25 Apr 2017 03:42:53.357,25 Apr 2017 03:43:24.335,30.978
107,26 Apr 2017 03:09:41.231,26 Apr 2017 03:10:10.326,29.096
108,27 Apr 2017 04:17:01.780,27 Apr 2017 04:17:25.877,24.097
109,28 Apr 2017 03:43:04.468,28 Apr 2017 03:44:12.948,68.481
110,29 Apr 2017 03:09:35.632,29 Apr 2017 03:11:00.580,84.948
111,30 Apr 2017 02:36:35.853,30 Apr 2017 02:37:48.799,72.946
112,30 Apr 2017 04:17:46.857,30 Apr 2017 04:18:17.980,31.123
113,1 May 2017 02:04:26.735,1 May 2017 02:04:37.636,10.901
114,1 May 2017 03:43:25.786,1 May 2017 03:45:06.865,101.079
115,2 May 2017 03:09:40.439,2 May 2017 03:11:56.404,135.965
116,3 May 2017 02:36:22.267,3 May 2017 02:38:46.627,144.360
117,3 May 2017 04:19:03.622,3 May 2017 04:19:15.950,12.328
118,4 May 2017 02:03:37.501,4 May 2017 02:05:37.571,120.071
119,4 May 2017 03:43:59.666,4 May 2017 03:46:06.954,127.287
120,5 May 2017 01:32:19.666,5 May 2017 01:32:29.275,9.609
121,5 May 2017 03:09:55.032,5 May 2017 03:12:58.719,183.687
122,6 May 2017 02:36:20.526,6 May 2017 02:39:51.291,210.765
123,7 May 2017 02:03:13.853,7 May 2017 02:06:44.715,210.861
124,7 May 2017 03:44:52.854,7 May 2017 03:47:14.277,141.423
125,8 May 2017 01:30:49.389,8 May 2017 01:33:39.035,169.646
126,8 May 2017 03:10:20.388,8 May 2017 03:14:08.668,228.279
127,9 May 2017 02:36:28.802,9 May 2017 02:41:04.019,275.216
128,10 May 2017 02:03:04.825,10 May 2017 02:08:00.377,295.552
129,10 May 2017 03:46:35.055,10 May 2017 03:48:30.152,115.097
130,11 May 2017 01:30:11.494,11 May 2017 01:34:57.805,286.311
131,11 May 2017 03:10:59.903,11 May 2017 03:15:27.663,267.760
132,12 May 2017 00:58:19.981,12 May 2017 01:01:56.367,216.386
133,12 May 2017 02:36:47.008,12 May 2017 02:42:26.312,339.304
134,13 May 2017 02:03:06.746,13 May 2017 02:09:26.166,379.420
135,14 May 2017 01:29:53.707,14 May 2017 01:36:27.295,393.588
136,14 May 2017 03:12:03.810,14 May 2017 03:16:57.427,293.617
137,15 May 2017 00:57:17.323,15 May 2017 01:03:29.783,372.460
138,15 May 2017 02:37:16.794,15 May 2017 02:44:00.016,403.222
139,16 May 2017 02:03:18.487,16 May 2017 02:11:04.053,465.566
140,17 May 2017 01:29:48.831,17 May 2017 01:38:09.625,500.794
141,18 May 2017 00:56:47.968,18 May 2017 01:05:16.818,508.851
142,18 May 2017 02:38:03.042,18 May 2017 02:45:37.440,454.398
143,19 May 2017 00:24:36.092,19 May 2017 00:30:50.557,374.465
144,19 May 2017 02:03:40.509,19 May 2017 02:12:56.453,555.944
145,20 May 2017 01:29:54.297,20 May 2017 01:40:07.347,613.050
146,21 May 2017 00:56:35.261,21 May 2017 01:06:38.152,602.890
147,21 May 2017 02:39:22.614,21 May 2017 02:44:15.000,292.386
148,22 May 2017 00:23:49.086,22 May 2017 00:32:10.422,501.337
149,22 May 2017 02:04:15.300,22 May 2017 02:12:53.875,518.575
150,23 May 2017 01:30:09.574,23 May 2017 01:40:18.039,608.465
151,24 May 2017 00:56:34.253,24 May 2017 01:06:59.421,625.168
152,25 May 2017 00:23:26.593,25 May 2017 00:33:00.878,574.285
153,25 May 2017 02:05:09.981,25 May 2017 02:11:59.679,409.699
154,26 May 2017 01:30:35.715,26 May 2017 01:40:00.236,564.521
155,27 May 2017 00:56:43.213,27 May 2017 01:07:06.279,623.066
156,28 May 2017 00:23:18.407,28 May 2017 00:33:32.369,613.963
157,28 May 2017 02:06:57.867,28 May 2017 02:10:07.241,189.375
158,29 May 2017 01:31:16.308,29 May 2017 01:39:23.366,487.058
159,30 May 2017 00:57:02.163,30 May 2017 01:06:58.712,596.550
160,31 May 2017 00:23:21.072,31 May 2017 00:33:48.515,627.443
161,1 Jun 2017 01:32:22.265,1 Jun 2017 01:38:16.279,354.013
162,2 Jun 2017 00:57:32.844,2 Jun 2017 01:06:34.879,542.035
163,3 Jun 2017 00:23:33.545,3 Jun 2017 00:33:50.429,616.884
164,5 Jun 2017 00:58:20.414,5 Jun 2017 01:05:49.475,449.061
165,6 Jun 2017 00:23:56.376,6 Jun 2017 00:33:37.514,581.138
166,8 Jun 2017 00:59:43.197,8 Jun 2017 01:04:23.903,280.706
167,9 Jun 2017 00:24:32.197,9 Jun 2017 00:33:07.034,514.836
168,12 Jun 2017 00:25:28.573,12 Jun 2017 00:32:11.221,402.648
169,15 Jun 2017 00:27:23.682,15 Jun 2017 00:30:11.611,167.929
170,15 Jun 2017 09:56:55.298,15 Jun 2017 10:00:01.942,186.644
171,17 Jun 2017 10:27:01.479,17 Jun 2017 10:27:52.360,50.881
172,18 Jun 2017 09:55:02.104,18 Jun 2017 10:01:50.857,408.753
173,20 Jun 2017 10:26:43.667,20 Jun 2017 10:28:24.025,100.358
174,21 Jun 2017 09:54:07.846,21 Jun 2017 10:02:46.002,518.156
175,22 Jun 2017 09:22:46.770,22 Jun 2017 09:27:38.746,291.976
176,23 Jun 2017 10:26:41.278,23 Jun 2017 10:29:05.938,144.661
177,24 Jun 2017 09:53:38.364,24 Jun 2017 10:03:21.242,582.878
178,25 Jun 2017 09:21:24.339,25 Jun 2017 09:28:58.875,454.537
179,26 Jun 2017 10:26:53.178,26 Jun 2017 10:29:57.308,184.129
180,27 Jun 2017 09:53:26.293,27 Jun 2017 10:03:43.750,617.457
181,28 Jun 2017 09:20:40.321,28 Jun 2017 09:29:45.638,545.317
182,29 Jun 2017 08:48:55.838,29 Jun 2017 08:54:58.950,363.112
183,29 Jun 2017 10:27:19.961,29 Jun 2017 10:30:57.261,217.300
184,30 Jun 2017 09:53:29.028,30 Jun 2017 10:03:56.023,626.995
185,1 Jul 2017 09:20:17.525,1 Jul 2017 09:30:15.977,598.452
186,2 Jul 2017 08:47:51.052,2 Jul 2017 08:56:03.368,492.316
187,2 Jul 2017 10:28:04.289,2 Jul 2017 10:32:04.968,240.678
188,3 Jul 2017 08:16:59.454,3 Jul 2017 08:20:29.200,209.747
189,3 Jul 2017 09:53:46.084,3 Jul 2017 10:03:58.539,612.455
190,4 Jul 2017 09:20:10.908,4 Jul 2017 09:30:34.780,623.872
191,5 Jul 2017 08:47:15.534,5 Jul 2017 08:56:43.461,567.927
192,5 Jul 2017 10:29:13.554,5 Jul 2017 10:33:19.622,246.067
193,6 Jul 2017 08:15:13.590,6 Jul 2017 08:22:11.444,417.854
194,6 Jul 2017 09:54:18.653,6 Jul 2017 10:03:50.159,571.506
195,7 Jul 2017 09:20:18.725,7 Jul 2017 09:30:43.692,624.966
196,8 Jul 2017 08:47:13.445,8 Jul 2017 08:57:09.445,596.001
197,8 Jul 2017 10:31:19.883,8 Jul 2017 10:34:40.453,200.569
198,9 Jul 2017 08:14:21.380,9 Jul 2017 08:23:05.176,523.797
199,9 Jul 2017 09:55:10.550,9 Jul 2017 10:03:27.228,496.678
200,10 Jul 2017 07:42:55.785,10 Jul 2017 07:48:02.110,306.325
201,10 Jul 2017 09:21:54.362,10 Jul 2017 09:30:42.640,528.278
202,11 Jul 2017 08:48:57.328,11 Jul 2017 08:57:24.717,507.389
203,12 Jul 2017 08:15:58.906,12 Jul 2017 08:23:39.695,460.789
204,12 Jul 2017 09:56:32.918,12 Jul 2017 10:02:38.873,365.955
205,13 Jul 2017 07:42:59.176,13 Jul 2017 07:49:19.132,379.956
206,13 Jul 2017 09:23:29.148,13 Jul 2017 09:30:29.788,420.640
207,14 Jul 2017 08:50:28.103,14 Jul 2017 08:57:30.245,422.142
208,15 Jul 2017 08:17:25.900,15 Jul 2017 08:24:01.713,395.813
209,16 Jul 2017 07:44:22.598,16 Jul 2017 07:50:04.799,342.201
210,16 Jul 2017 09:24:52.320,16 Jul 2017 09:29:59.926,307.606
211,17 Jul 2017 07:11:18.258,17 Jul 2017 07:15:20.928,242.670
212,17 Jul 2017 08:51:47.912,17 Jul 2017 08:57:25.395,337.482
213,18 Jul 2017 08:18:42.532,18 Jul 2017 08:24:13.554,331.022
214,19 Jul 2017 07:45:36.230,19 Jul 2017 07:50:34.494,298.264
215,19 Jul 2017 09:26:05.743,19 Jul 2017 09:28:55.023,169.280
216,20 Jul 2017 07:12:29.045,20 Jul 2017 07:16:23.381,234.335
217,20 Jul 2017 08:52:58.501,20 Jul 2017 08:57:07.463,248.963
218,21 Jul 2017 06:39:21.035,21 Jul 2017 06:40:56.018,94.983
219,21 Jul 2017 08:19:50.439,21 Jul 2017 08:24:15.606,265.167
220,22 Jul 2017 07:46:41.590,22 Jul 2017 07:50:52.802,251.212
221,23 Jul 2017 07:13:31.992,23 Jul 2017 07:17:02.572,210.580
222,23 Jul 2017 08:54:01.277,23 Jul 2017 08:56:28.825,147.548
223,24 Jul 2017 06:40:21.691,24 Jul 2017 06:42:32.660,130.969
224,24 Jul 2017 08:20:50.928,24 Jul 2017 08:24:06.624,195.696
225,25 Jul 2017 07:47:39.909,25 Jul 2017 07:51:01.245,201.336
226,26 Jul 2017 07:14:28.246,26 Jul 2017 07:17:27.960,179.714
227,27 Jul 2017 06:41:15.974,27 Jul 2017 06:43:24.976,129.001
228,27 Jul 2017 08:21:45.078,27 Jul 2017 08:23:42.738,117.660
229,28 Jul 2017 06:08:03.124,28 Jul 2017 06:08:25.617,22.493
230,28 Jul 2017 07:48:32.188,28 Jul 2017 07:50:59.664,147.476
231,29 Jul 2017 07:15:18.744,29 Jul 2017 07:17:42.730,143.985
232,30 Jul 2017 06:42:04.769,30 Jul 2017 06:43:58.720,113.952
233,30 Jul 2017 08:22:33.749,30 Jul 2017 08:22:52.213,18.464
234,31 Jul 2017 06:08:50.293,31 Jul 2017 06:09:39.826,49.533
235,31 Jul 2017 07:49:19.238,31 Jul 2017 07:50:46.088,86.850
236,1 Aug 2017 07:16:04.244,1 Aug 2017 07:17:47.754,103.510
237,2 Aug 2017 06:42:48.789,2 Aug 2017 06:44:20.169,91.379
238,3 Aug 2017 06:09:32.885,3 Aug 2017 06:10:24.400,51.515
239,3 Aug 2017 07:50:01.734,3 Aug 2017 07:50:14.967,13.232
240,4 Aug 2017 07:16:45.379,4 Aug 2017 07:17:42.295,56.917
241,5 Aug 2017 06:43:28.613,5 Aug 2017 06:44:31.501,62.888
242,6 Aug 2017 06:10:11.451,6 Aug 2017 06:10:53.408,41.957
243,7 Aug 2017 07:17:22.644,7 Aug 2017 07:17:23.477,0.833
244,8 Aug 2017 06:44:04.714,8 Aug 2017 06:44:33.009,28.295
245,9 Aug 2017 06:10:46.430,9 Aug 2017 06:11:11.172,24.742
246,12 Aug 2017 06:11:18.177,12 Aug 2017 06:11:19.097,0.920
247,25 Sep 2017 01:45:07.006,25 Sep 2017 01:45:18.509,11.502
248,26 Sep 2017 01:11:22.289,26 Sep 2017 01:11:26.172,3.884
249,27 Sep 2017 02:18:00.913,27 Sep 2017 02:18:35.979,35.066
250,28 Sep 2017 01:44:08.814,28 Sep 2017 01:45:28.574,79.760
251,29 Sep 2017 01:10:11.333,29 Sep 2017 01:11:53.505,102.173
252,30 Sep 2017 00:36:06.284,30 Sep 2017 00:37:47.970,101.686
253,30 Sep 2017 02:16:31.259,30 Sep 2017 02:18:14.615,103.357
254,1 Oct 2017 00:01:49.539,1 Oct 2017 00:02:40.420,50.881
255,1 Oct 2017 01:42:13.429,1 Oct 2017 01:45:28.721,195.292
256,2 Oct 2017 01:07:33.062,2 Oct 2017 01:12:09.984,276.922
257,3 Oct 2017 00:31:38.235,3 Oct 2017 00:38:24.066,405.831
258,3 Oct 2017 02:11:42.401,3 Oct 2017 02:17:28.848,346.446
259,3 Oct 2017 23:56:28.387,4 Oct 2017 00:04:01.758,453.372
260,4 Oct 2017 01:36:04.741,4 Oct 2017 01:45:17.235,552.494
261,5 Oct 2017 01:01:57.096,5 Oct 2017 01:12:16.703,619.607
262,6 Oct 2017 00:28:30.553,6 Oct 2017 00:38:47.391,616.838
263,6 Oct 2017 11:07:43.573,6 Oct 2017 11:12:02.347,258.773
264,6 Oct 2017 23:55:44.952,7 Oct 2017 00:04:49.427,544.475
265,7 Oct 2017 01:37:04.484,7 Oct 2017 01:44:49.180,464.696
266,7 Oct 2017 23:24:01.011,7 Oct 2017 23:30:02.712,361.700
267,8 Oct 2017 01:02:24.603,8 Oct 2017 01:12:13.127,588.523
268,9 Oct 2017 00:28:33.999,9 Oct 2017 00:39:00.459,626.460
269,9 Oct 2017 11:06:30.331,9 Oct 2017 11:13:53.585,443.254
270,9 Oct 2017 23:55:22.822,10 Oct 2017 00:05:20.602,597.779
271,10 Oct 2017 01:38:42.506,10 Oct 2017 01:43:48.010,305.504
272,10 Oct 2017 23:22:56.713,10 Oct 2017 23:31:08.133,491.420
273,11 Oct 2017 01:03:09.675,11 Oct 2017 01:11:56.704,527.029
274,11 Oct 2017 22:55:24.813,11 Oct 2017 22:55:33.568,8.755
275,12 Oct 2017 00:28:51.775,12 Oct 2017 00:39:03.759,611.984
276,12 Oct 2017 11:05:58.089,12 Oct 2017 11:14:58.697,540.608
277,12 Oct 2017 23:55:16.897,13 Oct 2017 00:05:40.209,623.312
278,13 Oct 2017 10:33:56.270,13 Oct 2017 10:39:37.774,341.504

"Access","Start Time (UTCG)","Stop Time (UTCG)","Duration (sec)"
1,13 Nov 2016 11:29:57.678,13 Nov 2016 11:35:23.880,326.202
2,16 Nov 2016 00:51:08.344,16 Nov 2016 00:52:03.766,55.422
3,16 Nov 2016 11:28:48.617,16 Nov 2016 11:36:42.883,474.266
4,17 Nov 2016 00:17:46.515,17 Nov 2016 00:19:45.611,119.096
5,17 Nov 2016 10:58:13.659,17 Nov 2016 10:59:39.977,86.318
6,17 Nov 2016 23:45:07.904,17 Nov 2016 23:47:32.464,144.560
7,18 Nov 2016 01:25:47.002,18 Nov 2016 01:28:06.022,139.020
8,18 Nov 2016 23:13:46.454,18 Nov 2016 23:15:25.000,98.546
9,19 Nov 2016 00:51:16.464,19 Nov 2016 00:55:59.001,282.537
10,19 Nov 2016 11:28:09.214,19 Nov 2016 11:37:26.930,557.716
11,20 Nov 2016 00:17:31.125,20 Nov 2016 00:23:58.753,387.628
12,20 Nov 2016 10:55:50.530,20 Nov 2016 11:02:16.098,385.568
13,20 Nov 2016 23:44:25.407,20 Nov 2016 23:52:07.131,461.723
14,21 Nov 2016 01:26:51.555,21 Nov 2016 01:32:42.428,350.872
15,21 Nov 2016 23:12:09.504,21 Nov 2016 23:19:37.648,448.144
16,22 Nov 2016 00:51:40.136,22 Nov 2016 01:00:56.783,556.647
17,22 Nov 2016 11:27:45.312,22 Nov 2016 11:37:50.465,605.153
18,23 Nov 2016 00:17:29.496,23 Nov 2016 00:27:50.803,621.308
19,23 Nov 2016 10:54:53.917,23 Nov 2016 11:03:20.164,506.247
20,23 Nov 2016 23:43:59.908,23 Nov 2016 23:54:16.115,616.208
21,24 Nov 2016 01:29:31.913,24 Nov 2016 01:30:47.231,75.318
22,24 Nov 2016 10:23:19.853,24 Nov 2016 10:27:18.940,239.087
23,24 Nov 2016 23:11:11.699,24 Nov 2016 23:20:12.369,540.670
24,25 Nov 2016 00:52:24.027,25 Nov 2016 01:00:16.889,472.862
25,25 Nov 2016 11:27:32.454,25 Nov 2016 11:37:58.124,625.670
26,25 Nov 2016 22:39:27.342,25 Nov 2016 22:45:17.753,350.412
27,26 Nov 2016 00:17:42.090,26 Nov 2016 00:27:34.421,592.331
28,26 Nov 2016 10:54:20.053,26 Nov 2016 11:03:56.295,576.242
29,26 Nov 2016 23:43:48.738,26 Nov 2016 23:54:16.031,627.293
30,27 Nov 2016 10:21:48.345,27 Nov 2016 10:29:00.860,432.515
31,27 Nov 2016 23:10:34.937,27 Nov 2016 23:20:30.356,595.418
32,28 Nov 2016 00:53:42.733,28 Nov 2016 00:59:06.786,324.053
33,28 Nov 2016 11:27:29.086,28 Nov 2016 11:37:51.548,622.462
34,28 Nov 2016 22:38:07.145,28 Nov 2016 22:46:11.183,484.038
35,29 Nov 2016 00:18:11.287,29 Nov 2016 00:27:05.626,534.339
36,29 Nov 2016 10:53:59.711,29 Nov 2016 11:04:13.956,614.245
37,29 Nov 2016 23:43:51.308,29 Nov 2016 23:54:06.266,614.958
38,30 Nov 2016 10:21:00.631,30 Nov 2016 10:29:53.578,532.947
39,30 Nov 2016 12:01:54.196,30 Nov 2016 12:03:10.584,76.388
40,30 Nov 2016 23:10:13.984,30 Nov 2016 23:20:36.671,622.687
41,1 Dec 2016 09:49:00.318,1 Dec 2016 09:54:21.083,320.765
42,1 Dec 2016 11:27:35.250,1 Dec 2016 11:37:30.698,595.448
43,1 Dec 2016 22:37:16.886,1 Dec 2016 22:46:39.131,562.245
44,2 Dec 2016 00:19:03.564,2 Dec 2016 00:26:18.153,434.589
45,2 Dec 2016 10:53:49.682,2 Dec 2016 11:04:16.514,626.832
46,2 Dec 2016 23:44:08.600,2 Dec 2016 23:53:45.867,577.267
47,3 Dec 2016 10:20:31.394,3 Dec 2016 10:30:22.717,591.323
48,3 Dec 2016 12:02:46.961,3 Dec 2016 12:05:30.343,163.382
49,3 Dec 2016 23:10:06.973,3 Dec 2016 23:20:33.085,626.112
50,4 Dec 2016 09:47:49.178,4 Dec 2016 09:55:40.099,470.922
51,4 Dec 2016 11:27:52.700,4 Dec 2016 11:36:53.742,541.042
52,4 Dec 2016 22:36:45.325,4 Dec 2016 22:46:52.609,607.284
53,5 Dec 2016 00:20:43.815,5 Dec 2016 00:24:47.410,243.594
54,5 Dec 2016 09:17:27.168,5 Dec 2016 09:18:23.366,56.198
55,5 Dec 2016 10:53:48.986,5 Dec 2016 11:04:05.004,616.018
56,5 Dec 2016 23:44:43.934,5 Dec 2016 23:53:11.673,507.739
57,6 Dec 2016 10:20:14.267,6 Dec 2016 10:30:34.868,620.601
58,6 Dec 2016 23:10:13.820,6 Dec 2016 23:20:19.690,605.870
59,7 Dec 2016 09:47:08.298,7 Dec 2016 09:56:23.565,555.267
60,7 Dec 2016 11:28:26.426,7 Dec 2016 11:35:55.535,449.109
61,7 Dec 2016 22:36:28.707,7 Dec 2016 22:46:55.238,626.530
62,8 Dec 2016 09:14:50.472,8 Dec 2016 09:21:11.001,380.529
63,8 Dec 2016 10:53:58.173,8 Dec 2016 11:03:38.859,580.687
64,8 Dec 2016 23:45:46.576,8 Dec 2016 23:52:14.651,388.075
65,9 Dec 2016 10:20:38.329,9 Dec 2016 10:30:32.457,594.129
66,9 Dec 2016 23:10:36.138,9 Dec 2016 23:19:54.956,558.818
67,10 Dec 2016 09:48:38.557,10 Dec 2016 09:56:46.387,487.830
68,10 Dec 2016 11:29:33.912,10 Dec 2016 11:34:18.342,284.430
69,10 Dec 2016 22:36:25.834,10 Dec 2016 22:46:48.160,622.326
70,11 Dec 2016 09:16:31.841,11 Dec 2016 09:22:14.892,343.051
71,11 Dec 2016 10:57:05.417,11 Dec 2016 11:02:55.472,350.054
72,11 Dec 2016 23:48:15.980,11 Dec 2016 23:49:55.696,99.717
73,12 Dec 2016 08:44:19.242,12 Dec 2016 08:46:09.985,110.743
74,12 Dec 2016 10:24:52.425,12 Dec 2016 10:30:15.981,323.557
75,12 Dec 2016 23:11:18.461,12 Dec 2016 23:19:14.515,476.053
76,13 Dec 2016 09:52:34.269,13 Dec 2016 09:56:53.305,259.036
77,13 Dec 2016 22:36:37.127,13 Dec 2016 22:46:30.968,593.841
78,14 Dec 2016 09:20:11.445,14 Dec 2016 09:22:50.474,159.029
79,14 Dec 2016 11:00:43.931,14 Dec 2016 11:01:47.511,63.580
80,15 Dec 2016 08:47:44.350,15 Dec 2016 08:47:53.483,9.133
81,15 Dec 2016 10:28:16.553,15 Dec 2016 10:29:44.302,87.749
82,15 Dec 2016 23:12:34.893,15 Dec 2016 23:18:04.553,329.660
83,16 Dec 2016 09:55:45.268,16 Dec 2016 09:56:46.000,60.732
84,16 Dec 2016 22:37:04.905,16 Dec 2016 22:46:01.466,536.561
85,19 Dec 2016 22:37:55.463,19 Dec 2016 22:45:13.545,438.082
86,22 Dec 2016 22:39:32.488,22 Dec 2016 22:43:43.836,251.348
87,9 Mar 2017 01:53:19.695,9 Mar 2017 01:54:05.850,46.154
88,10 Mar 2017 01:19:57.571,10 Mar 2017 01:21:15.604,78.034
89,11 Mar 2017 00:47:10.218,11 Mar 2017 00:48:29.895,79.677
90,11 Mar 2017 02:27:22.448,11 Mar 2017 02:29:01.113,98.665
91,12 Mar 2017 01:53:14.552,12 Mar 2017 01:56:21.370,186.819
92,13 Mar 2017 01:19:36.214,13 Mar 2017 01:23:48.689,252.475
93,14 Mar 2017 00:46:26.252,14 Mar 2017 00:51:25.301,299.050
94,14 Mar 2017 02:27:52.865,14 Mar 2017 02:31:58.359,245.493
95,15 Mar 2017 00:14:01.755,15 Mar 2017 00:19:15.060,313.305
96,15 Mar 2017 01:53:19.352,15 Mar 2017 01:59:49.286,389.934
97,16 Mar 2017 01:19:24.417,16 Mar 2017 01:28:02.329,517.912
98,17 Mar 2017 00:45:56.984,17 Mar 2017 00:56:04.503,607.519
99,17 Mar 2017 02:29:01.000,17 Mar 2017 02:33:20.105,259.105
100,18 Mar 2017 00:13:01.532,18 Mar 2017 00:21:34.586,513.053
101,18 Mar 2017 01:53:36.841,18 Mar 2017 02:02:04.549,507.708
102,18 Mar 2017 23:41:17.924,18 Mar 2017 23:45:39.259,261.335
103,19 Mar 2017 01:19:21.906,19 Mar 2017 01:29:26.433,604.527
104,20 Mar 2017 00:45:38.403,20 Mar 2017 00:56:04.348,625.945
105,21 Mar 2017 00:12:22.530,21 Mar 2017 00:22:02.250,579.720
106,21 Mar 2017 01:54:14.878,21 Mar 2017 02:00:48.236,393.358
107,21 Mar 2017 23:39:46.285,21 Mar 2017 23:47:07.626,441.341
108,22 Mar 2017 01:19:29.900,22 Mar 2017 01:28:47.787,557.887
109,23 Mar 2017 00:45:29.127,23 Mar 2017 00:55:50.200,621.073
110,24 Mar 2017 00:11:56.517,24 Mar 2017 00:22:12.056,615.539
111,24 Mar 2017 01:55:55.719,24 Mar 2017 01:58:23.829,148.110
112,24 Mar 2017 11:25:07.121,24 Mar 2017 11:25:37.467,30.346
113,24 Mar 2017 23:38:53.915,24 Mar 2017 23:47:51.406,537.491
114,25 Mar 2017 01:19:52.192,25 Mar 2017 01:27:49.970,477.778
115,26 Mar 2017 00:45:29.333,26 Mar 2017 00:55:21.890,592.557
116,27 Mar 2017 00:11:40.563,27 Mar 2017 00:22:07.081,626.518
117,27 Mar 2017 23:38:19.123,27 Mar 2017 23:48:12.583,593.460
118,28 Mar 2017 01:20:40.431,28 Mar 2017 01:26:21.113,340.683
119,29 Mar 2017 00:45:40.846,29 Mar 2017 00:54:37.496,536.650
120,30 Mar 2017 00:11:33.799,30 Mar 2017 00:21:48.232,614.433
121,30 Mar 2017 23:38:55.442,30 Mar 2017 23:48:17.204,561.762
122,31 Mar 2017 10:50:21.172,31 Mar 2017 10:55:11.568,290.395
123,1 Apr 2017 00:46:08.899,1 Apr 2017 00:53:31.640,442.741
124,2 Apr 2017 00:11:36.868,2 Apr 2017 00:21:14.858,577.990
125,2 Apr 2017 23:40:38.582,2 Apr 2017 23:48:07.523,448.941
126,3 Apr 2017 10:48:39.335,3 Apr 2017 10:56:10.907,451.572
127,4 Apr 2017 00:47:12.163,4 Apr 2017 00:51:45.389,273.226
128,5 Apr 2017 00:11:52.347,5 Apr 2017 00:20:24.267,511.919
129,5 Apr 2017 23:42:21.640,5 Apr 2017 23:47:43.946,322.305
130,6 Apr 2017 10:47:34.987,6 Apr 2017 10:56:37.214,542.227
131,7 Apr 2017 10:15:47.508,7 Apr 2017 10:21:40.737,353.229
132,8 Apr 2017 00:12:27.564,8 Apr 2017 00:19:08.943,401.379
133,8 Apr 2017 23:44:04.897,8 Apr 2017 23:47:05.294,180.396
134,9 Apr 2017 10:46:51.197,9 Apr 2017 10:56:47.188,595.991
135,10 Apr 2017 10:14:20.857,10 Apr 2017 10:22:25.616,484.759
136,11 Apr 2017 00:13:58.181,11 Apr 2017 00:16:52.957,174.776
137,11 Apr 2017 09:43:35.524,11 Apr 2017 09:46:32.504,176.981
138,11 Apr 2017 23:45:48.682,11 Apr 2017 23:46:07.883,19.201
139,12 Apr 2017 10:46:22.928,12 Apr 2017 10:56:45.687,622.758
140,13 Apr 2017 10:13:23.492,13 Apr 2017 10:22:45.576,562.085
141,14 Apr 2017 09:41:19.926,14 Apr 2017 09:48:02.439,402.513
142,15 Apr 2017 10:46:08.385,15 Apr 2017 10:56:34.423,626.038
143,16 Apr 2017 10:12:44.532,16 Apr 2017 10:22:51.282,606.750
144,17 Apr 2017 09:40:04.236,17 Apr 2017 09:48:37.040,512.804
145,18 Apr 2017 09:08:43.183,18 Apr 2017 09:13:16.801,273.618
146,18 Apr 2017 10:46:07.481,18 Apr 2017 10:56:13.489,606.008
147,19 Apr 2017 10:12:20.288,19 Apr 2017 10:22:46.274,625.986
148,20 Apr 2017 09:39:12.891,20 Apr 2017 09:48:51.569,578.679
149,21 Apr 2017 09:06:56.092,21 Apr 2017 09:14:18.973,442.881
150,21 Apr 2017 10:46:21.764,21 Apr 2017 10:54:20.032,478.268
151,22 Apr 2017 10:12:09.574,22 Apr 2017 10:22:31.690,622.116
152,23 Apr 2017 09:38:38.394,23 Apr 2017 09:48:53.342,614.947
153,24 Apr 2017 09:05:49.001,24 Apr 2017 09:14:45.605,536.604
154,24 Apr 2017 10:46:55.605,24 Apr 2017 10:51:24.423,268.818
155,25 Apr 2017 08:34:05.523,25 Apr 2017 08:39:45.001,339.477
156,25 Apr 2017 10:12:12.774,25 Apr 2017 10:22:07.166,594.392
157,26 Apr 2017 09:38:18.045,26 Apr 2017 09:48:44.950,626.905
158,27 Apr 2017 09:05:02.999,27 Apr 2017 09:14:55.352,592.353
159,27 Apr 2017 10:48:02.284,27 Apr 2017 10:48:36.409,34.125
160,28 Apr 2017 08:32:34.802,28 Apr 2017 08:40:31.493,476.691
161,28 Apr 2017 10:12:32.086,28 Apr 2017 10:21:30.608,538.522
162,29 Apr 2017 08:02:03.124,29 Apr 2017 08:04:24.629,141.504
163,29 Apr 2017 09:38:11.172,29 Apr 2017 09:48:27.026,615.854
164,30 Apr 2017 09:04:32.693,30 Apr 2017 09:14:53.449,620.756
165,1 May 2017 08:31:36.208,1 May 2017 08:40:51.606,555.398
166,1 May 2017 10:13:13.462,1 May 2017 10:20:36.257,442.795
167,2 May 2017 07:59:34.508,2 May 2017 08:06:05.100,390.592
168,2 May 2017 09:39:08.247,2 May 2017 09:47:58.745,530.498
169,3 May 2017 09:06:06.840,3 May 2017 09:14:41.743,514.903
170,4 May 2017 08:33:02.671,4 May 2017 08:40:57.060,474.388
171,4 May 2017 10:14:38.334,4 May 2017 10:19:02.977,264.643
172,5 May 2017 07:59:56.061,5 May 2017 08:06:40.704,404.643
173,5 May 2017 09:40:25.501,5 May 2017 09:47:17.228,411.728
174,6 May 2017 07:27:01.130,6 May 2017 07:31:13.515,252.385
175,6 May 2017 09:07:16.595,6 May 2017 09:14:20.426,423.831
176,7 May 2017 08:34:05.774,7 May 2017 08:40:51.668,405.894
177,8 May 2017 08:00:53.226,8 May 2017 08:06:55.280,362.053
178,8 May 2017 09:41:22.261,8 May 2017 09:46:14.410,292.149
179,9 May 2017 07:27:39.112,9 May 2017 07:32:19.798,280.686
180,9 May 2017 09:08:08.051,9 May 2017 09:13:48.156,340.105
181,10 May 2017 08:34:52.429,10 May 2017 08:40:36.690,344.261
182,11 May 2017 08:01:35.519,11 May 2017 08:06:56.796,321.277
183,11 May 2017 09:42:04.257,11 May 2017 09:44:08.162,123.905
184,12 May 2017 07:28:17.416,12 May 2017 07:32:47.083,269.667
185,12 May 2017 09:08:46.080,12 May 2017 09:13:01.029,254.950
186,13 May 2017 06:54:58.226,13 May 2017 06:57:41.609,163.384
187,13 May 2017 08:35:26.819,13 May 2017 08:40:11.885,285.066
188,14 May 2017 08:02:06.543,14 May 2017 08:06:48.057,281.513
189,15 May 2017 07:28:45.333,15 May 2017 07:32:56.812,251.479
190,15 May 2017 09:09:13.786,15 May 2017 09:11:47.262,153.476
191,16 May 2017 06:55:23.250,16 May 2017 06:58:30.410,187.160
192,16 May 2017 08:35:51.642,16 May 2017 08:39:35.307,223.665
193,17 May 2017 06:22:00.350,17 May 2017 06:22:00.709,0.359
194,17 May 2017 08:02:28.689,17 May 2017 08:06:29.815,241.126
195,18 May 2017 07:29:04.975,18 May 2017 07:32:54.665,229.691
196,19 May 2017 06:55:40.536,19 May 2017 06:58:50.951,190.415
197,19 May 2017 08:36:08.763,19 May 2017 08:38:41.650,152.887
198,20 May 2017 06:22:15.425,20 May 2017 06:24:00.645,105.220
199,20 May 2017 08:02:43.605,20 May 2017 08:06:01.370,197.765
200,21 May 2017 07:29:17.809,21 May 2017 07:32:42.664,204.855
201,22 May 2017 06:55:51.399,22 May 2017 06:58:56.351,184.952
202,22 May 2017 08:36:19.487,22 May 2017 08:37:12.386,52.899
203,23 May 2017 06:22:24.415,23 May 2017 06:24:37.714,133.299
204,23 May 2017 08:02:52.466,23 May 2017 08:05:20.057,147.591
205,24 May 2017 05:48:56.873,24 May 2017 05:49:02.077,5.203
206,24 May 2017 07:29:24.892,24 May 2017 07:32:21.119,176.227
207,25 May 2017 06:55:56.790,25 May 2017 06:58:50.741,173.951
208,26 May 2017 06:22:28.177,26 May 2017 06:24:52.567,144.390
209,26 May 2017 08:02:56.113,26 May 2017 08:04:18.527,82.414
210,27 May 2017 05:48:59.083,27 May 2017 05:50:13.939,74.856
211,27 May 2017 07:29:26.985,27 May 2017 07:31:48.833,141.848
212,28 May 2017 06:55:57.388,28 May 2017 06:58:35.532,158.144
213,29 May 2017 06:22:27.338,29 May 2017 06:24:54.007,146.668
214,30 May 2017 05:48:56.843,30 May 2017 05:50:42.197,105.354
215,30 May 2017 07:29:24.648,30 May 2017 07:31:02.209,97.561
216,31 May 2017 05:15:25.925,31 May 2017 05:15:31.219,5.294
217,31 May 2017 06:55:53.703,31 May 2017 06:58:10.601,136.898
218,1 Jun 2017 06:22:22.336,1 Jun 2017 06:24:45.081,142.745
219,2 Jun 2017 05:48:50.564,2 Jun 2017 05:50:52.104,121.540
220,2 Jun 2017 07:29:18.281,2 Jun 2017 07:29:50.697,32.416
221,3 Jun 2017 05:15:18.394,3 Jun 2017 05:16:22.991,64.597
222,3 Jun 2017 06:55:46.082,3 Jun 2017 06:57:34.187,108.105
223,4 Jun 2017 06:22:13.494,4 Jun 2017 06:24:26.678,133.184
224,5 Jun 2017 05:48:40.520,5 Jun 2017 05:50:49.873,129.354
225,6 Jun 2017 05:15:07.164,6 Jun 2017 05:16:44.200,97.036
226,6 Jun 2017 06:55:34.767,6 Jun 2017 06:56:41.435,66.669
227,7 Jun 2017 04:41:33.431,7 Jun 2017 04:41:49.745,16.314
228,7 Jun 2017 06:22:01.009,7 Jun 2017 06:23:58.222,117.213
229,8 Jun 2017 05:48:26.877,8 Jun 2017 05:50:37.726,130.849
230,9 Jun 2017 05:14:52.371,9 Jun 2017 05:16:49.702,117.332
231,10 Jun 2017 04:41:17.491,10 Jun 2017 04:42:28.643,71.152
232,10 Jun 2017 06:21:44.986,10 Jun 2017 06:23:17.291,92.305
233,11 Jun 2017 05:48:09.712,11 Jun 2017 05:50:16.085,126.374
234,12 Jun 2017 05:14:34.056,12 Jun 2017 05:16:44.004,129.948
235,13 Jun 2017 04:40:58.025,13 Jun 2017 04:42:43.957,105.932
236,13 Jun 2017 06:21:25.436,13 Jun 2017 06:22:17.239,51.804
237,14 Jun 2017 04:07:21.612,14 Jun 2017 04:08:01.944,40.332
238,14 Jun 2017 05:47:48.998,14 Jun 2017 05:49:43.915,114.917
239,15 Jun 2017 05:14:12.174,15 Jun 2017 05:16:28.681,136.508
240,16 Jun 2017 04:40:34.956,16 Jun 2017 04:42:45.444,130.488
241,17 Jun 2017 04:06:57.339,17 Jun 2017 04:08:31.416,94.077
242,17 Jun 2017 05:47:24.636,17 Jun 2017 05:48:57.938,93.302
243,18 Jun 2017 05:13:46.587,18 Jun 2017 05:16:03.725,137.138
244,19 Jun 2017 04:40:08.114,19 Jun 2017 04:42:36.425,148.311
245,20 Jun 2017 04:06:29.217,20 Jun 2017 04:08:41.622,132.405
246,20 Jun 2017 05:46:56.419,20 Jun 2017 05:47:48.788,52.369
247,21 Jun 2017 03:32:49.876,21 Jun 2017 03:34:09.604,79.728
248,21 Jun 2017 05:13:17.050,21 Jun 2017 05:15:27.571,130.521
249,22 Jun 2017 04:39:37.225,22 Jun 2017 04:42:17.929,160.704
250,23 Jun 2017 04:05:56.927,23 Jun 2017 04:08:39.383,162.456
251,24 Jun 2017 03:32:16.138,24 Jun 2017 03:34:31.631,135.493
252,24 Jun 2017 05:12:43.205,24 Jun 2017 05:14:35.810,112.606
253,25 Jun 2017 02:58:34.844,25 Jun 2017 02:59:32.607,57.764
254,25 Jun 2017 04:39:01.877,25 Jun 2017 04:41:49.529,167.653
255,26 Jun 2017 04:05:20.019,26 Jun 2017 04:08:27.139,187.120
256,27 Jun 2017 03:31:37.606,27 Jun 2017 03:34:37.306,179.700
257,27 Jun 2017 05:12:04.552,27 Jun 2017 05:13:14.569,70.017
258,28 Jun 2017 02:57:54.617,28 Jun 2017 03:00:13.655,139.039
259,28 Jun 2017 04:38:21.524,28 Jun 2017 04:41:09.024,167.501
260,29 Jun 2017 02:24:11.014,29 Jun 2017 02:24:14.827,3.812
261,29 Jun 2017 04:04:37.880,29 Jun 2017 04:08:05.442,207.562
262,30 Jun 2017 03:30:53.599,30 Jun 2017 03:34:31.558,217.959
263,1 Jul 2017 02:57:08.633,1 Jul 2017 03:00:29.510,200.877
264,1 Jul 2017 04:37:35.397,1 Jul 2017 04:40:10.446,155.049
265,2 Jul 2017 02:23:22.953,2 Jul 2017 02:25:43.781,140.828
266,2 Jul 2017 04:03:49.664,2 Jul 2017 04:07:33.402,223.738
267,3 Jul 2017 03:30:03.170,3 Jul 2017 03:34:16.126,252.957
268,4 Jul 2017 02:56:15.863,4 Jul 2017 03:00:31.071,255.208
269,4 Jul 2017 04:36:42.448,4 Jul 2017 04:38:31.261,108.813
270,5 Jul 2017 02:22:27.682,5 Jul 2017 02:26:14.647,226.964
271,5 Jul 2017 04:02:54.208,5 Jul 2017 04:06:48.056,233.847
272,6 Jul 2017 01:48:38.575,6 Jul 2017 01:50:50.235,131.660
273,6 Jul 2017 03:29:05.034,6 Jul 2017 03:33:51.144,286.110
274,7 Jul 2017 02:55:14.851,7 Jul 2017 03:00:21.954,307.103
275,8 Jul 2017 02:21:23.589,8 Jul 2017 02:26:25.195,301.606
276,8 Jul 2017 04:01:49.878,8 Jul 2017 04:05:41.103,231.225
277,9 Jul 2017 01:47:31.151,9 Jul 2017 01:51:49.969,258.818
278,9 Jul 2017 03:27:57.356,9 Jul 2017 03:33:15.215,317.858
279,10 Jul 2017 02:54:03.557,10 Jul 2017 03:00:03.353,359.796
280,11 Jul 2017 02:20:08.350,11 Jul 2017 02:26:22.952,374.601
281,11 Jul 2017 04:01:04.518,11 Jul 2017 04:03:27.029,142.511
282,12 Jul 2017 01:46:11.615,12 Jul 2017 01:52:12.929,361.314
283,12 Jul 2017 03:26:37.499,12 Jul 2017 03:32:24.365,346.867
284,13 Jul 2017 01:12:13.192,13 Jul 2017 01:17:08.621,295.429
285,13 Jul 2017 02:52:38.953,13 Jul 2017 02:59:34.960,416.007
286,14 Jul 2017 02:18:38.529,14 Jul 2017 02:26:10.576,452.047
287,15 Jul 2017 01:44:35.999,15 Jul 2017 01:52:18.795,462.796
288,15 Jul 2017 03:25:20.543,15 Jul 2017 03:31:06.556,346.013
289,16 Jul 2017 01:10:31.120,16 Jul 2017 01:17:52.263,441.143
290,16 Jul 2017 02:50:56.388,16 Jul 2017 02:58:54.804,478.416
291,17 Jul 2017 00:39:37.260,17 Jul 2017 00:41:33.593,116.332
292,17 Jul 2017 02:16:48.643,17 Jul 2017 02:25:48.767,540.124
293,18 Jul 2017 01:42:37.824,18 Jul 2017 01:52:12.971,575.147
294,19 Jul 2017 01:08:54.177,19 Jul 2017 01:18:08.738,554.561
295,19 Jul 2017 02:50:27.042,19 Jul 2017 02:57:57.518,450.475
296,20 Jul 2017 00:36:54.889,20 Jul 2017 00:43:18.725,383.837
297,20 Jul 2017 02:15:32.939,20 Jul 2017 02:25:16.788,583.849
298,21 Jul 2017 01:41:30.342,21 Jul 2017 01:51:57.389,627.046
299,22 Jul 2017 01:08:07.697,22 Jul 2017 01:18:10.372,602.675
300,22 Jul 2017 02:51:42.534,22 Jul 2017 02:56:24.326,281.791
301,23 Jul 2017 00:35:29.654,23 Jul 2017 00:43:51.282,501.627
302,23 Jul 2017 02:15:51.853,23 Jul 2017 02:24:31.961,520.108
303,24 Jul 2017 01:41:21.929,24 Jul 2017 01:51:32.310,610.381
304,25 Jul 2017 01:07:36.080,25 Jul 2017 01:18:01.132,625.052
305,26 Jul 2017 00:34:30.285,26 Jul 2017 00:44:02.238,571.953
306,26 Jul 2017 02:16:35.302,26 Jul 2017 02:23:26.905,411.602
307,27 Jul 2017 01:41:28.215,27 Jul 2017 01:50:56.523,568.308
308,28 Jul 2017 01:07:17.901,28 Jul 2017 01:17:42.372,624.471
309,29 Jul 2017 00:33:48.195,29 Jul 2017 00:43:59.986,611.790
310,29 Jul 2017 02:18:17.690,29 Jul 2017 02:21:27.526,189.836
311,30 Jul 2017 01:41:52.940,30 Jul 2017 01:50:06.429,493.489
312,31 Jul 2017 01:07:13.330,31 Jul 2017 01:17:13.920,600.590
313,1 Aug 2017 00:33:20.331,1 Aug 2017 00:43:47.457,627.126
314,2 Aug 2017 01:42:46.871,2 Aug 2017 01:48:51.519,364.648
315,3 Aug 2017 01:07:24.221,3 Aug 2017 01:16:34.027,549.806
316,4 Aug 2017 00:33:05.794,4 Aug 2017 00:43:25.500,619.706
317,5 Aug 2017 10:38:36.480,5 Aug 2017 10:43:00.093,263.613
318,6 Aug 2017 01:07:55.575,6 Aug 2017 01:15:37.860,462.284
319,7 Aug 2017 00:33:05.207,7 Aug 2017 00:42:53.538,588.331
320,8 Aug 2017 00:08:20.423,8 Aug 2017 00:09:31.941,71.518
321,8 Aug 2017 10:36:57.962,8 Aug 2017 10:44:18.973,441.011
322,9 Aug 2017 01:09:03.580,9 Aug 2017 01:14:09.518,305.938
323,10 Aug 2017 00:33:21.089,10 Aug 2017 00:42:09.150,528.061
324,11 Aug 2017 00:05:46.331,11 Aug 2017 00:09:06.755,200.425
325,11 Aug 2017 10:35:57.818,11 Aug 2017 10:44:54.254,536.436
326,12 Aug 2017 10:03:49.323,12 Aug 2017 10:09:20.879,331.557
327,13 Aug 2017 00:34:00.226,13 Aug 2017 00:41:05.765,425.538
328,14 Aug 2017 00:03:03.220,14 Aug 2017 00:08:31.085,327.865
329,14 Aug 2017 10:35:15.007,14 Aug 2017 10:45:07.280,592.273
330,15 Aug 2017 10:02:26.764,15 Aug 2017 10:10:21.510,474.746
331,16 Aug 2017 00:35:29.847,16 Aug 2017 00:39:16.454,226.607
332,16 Aug 2017 09:31:42.654,16 Aug 2017 09:33:17.659,95.005
333,17 Aug 2017 00:00:11.762,17 Aug 2017 00:07:41.698,449.935
334,17 Aug 2017 10:34:43.783,17 Aug 2017 10:45:03.996,620.213
335,18 Aug 2017 10:01:32.400,18 Aug 2017 10:10:48.836,556.437
336,19 Aug 2017 09:29:08.702,19 Aug 2017 09:35:32.810,384.107
337,20 Aug 2017 00:00:07.631,20 Aug 2017 00:06:29.368,381.737
338,20 Aug 2017 10:34:22.042,20 Aug 2017 10:44:46.627,624.586
339,21 Aug 2017 10:00:53.017,21 Aug 2017 10:10:56.336,603.319
340,22 Aug 2017 09:27:56.860,22 Aug 2017 09:36:20.491,503.631
341,23 Aug 2017 00:02:29.379,23 Aug 2017 00:03:48.607,79.228
342,23 Aug 2017 08:56:20.081,23 Aug 2017 09:00:11.582,231.501
343,23 Aug 2017 10:34:09.379,23 Aug 2017 10:44:15.599,606.220
344,24 Aug 2017 10:00:24.360,24 Aug 2017 10:10:48.441,624.081
345,25 Aug 2017 09:27:07.304,25 Aug 2017 09:36:40.881,573.577
346,26 Aug 2017 08:54:31.747,26 Aug 2017 09:01:38.808,427.062
347,26 Aug 2017 10:34:06.851,26 Aug 2017 10:43:29.811,562.960
348,27 Aug 2017 10:00:04.917,27 Aug 2017 10:10:26.745,621.828
349,28 Aug 2017 09:26:31.010,28 Aug 2017 09:36:43.225,612.215
350,29 Aug 2017 08:53:27.861,29 Aug 2017 09:02:16.354,528.493
351,29 Aug 2017 10:34:17.787,29 Aug 2017 10:42:25.807,488.020
352,30 Aug 2017 08:21:26.061,30 Aug 2017 08:26:34.668,308.607
353,30 Aug 2017 09:59:54.691,30 Aug 2017 10:09:51.251,596.560
354,31 Aug 2017 09:26:04.795,31 Aug 2017 09:36:30.858,626.062
355,1 Sep 2017 08:52:42.411,1 Sep 2017 09:02:30.530,588.118
356,1 Sep 2017 10:34:51.989,1 Sep 2017 10:40:53.571,361.582
357,2 Sep 2017 08:19:57.118,2 Sep 2017 08:27:40.246,463.128
358,2 Sep 2017 09:59:55.252,2 Sep 2017 10:09:00.320,545.067
359,3 Sep 2017 09:25:47.647,3 Sep 2017 09:34:35.323,527.676
360,4 Sep 2017 08:52:08.947,4 Sep 2017 08:59:33.929,444.982
361,5 Sep 2017 08:18:59.497,5 Sep 2017 08:24:46.289,346.792
362,5 Sep 2017 10:00:11.069,5 Sep 2017 10:05:09.005,297.936
363,6 Sep 2017 07:46:40.751,6 Sep 2017 07:50:08.281,207.529
364,6 Sep 2017 09:25:39.986,6 Sep 2017 09:30:31.584,291.598
365,7 Sep 2017 08:51:45.094,7 Sep 2017 08:56:01.311,256.217
366,8 Sep 2017 08:18:17.654,8 Sep 2017 08:21:36.729,199.074
367,8 Sep 2017 10:00:56.754,8 Sep 2017 10:02:00.873,64.119
368,9 Sep 2017 07:45:24.075,9 Sep 2017 07:47:16.813,112.738
369,9 Sep 2017 09:25:43.997,9 Sep 2017 09:27:41.263,117.266
370,10 Sep 2017 08:51:30.283,10 Sep 2017 08:53:25.523,115.241
371,11 Sep 2017 08:17:46.835,11 Sep 2017 08:19:13.091,86.256
372,12 Sep 2017 07:44:31.600,12 Sep 2017 07:45:03.526,31.926

"Access","Start Time (UTCG)","Stop Time (UTCG)","Duration (sec)"
1,14 Oct 2016 08:57:40.314,14 Oct 2016 09:03:43.083,362.769
2,14 Oct 2016 10:36:05.120,14 Oct 2016 10:45:52.433,587.314
3,14 Oct 2016 22:54:32.709,14 Oct 2016 23:01:04.959,392.250
4,15 Oct 2016 10:02:13.115,15 Oct 2016 10:12:38.842,625.727
5,16 Oct 2016 09:29:00.635,16 Oct 2016 09:38:57.982,597.347
6,16 Oct 2016 11:12:21.972,16 Oct 2016 11:17:23.859,301.887
7,17 Oct 2016 08:56:33.259,17 Oct 2016 09:04:44.496,491.236
8,17 Oct 2016 10:36:46.984,17 Oct 2016 10:45:32.370,525.387
9,17 Oct 2016 22:56:35.835,17 Oct 2016 22:58:52.041,136.206
10,18 Oct 2016 08:25:41.182,18 Oct 2016 08:29:09.033,207.851
11,18 Oct 2016 10:02:27.667,18 Oct 2016 10:12:38.524,610.857
12,19 Oct 2016 09:28:51.524,19 Oct 2016 09:39:13.945,622.420
13,20 Oct 2016 08:55:55.277,20 Oct 2016 09:05:21.731,566.454
14,20 Oct 2016 10:37:53.789,20 Oct 2016 10:44:52.252,418.462
15,21 Oct 2016 08:26:31.591,21 Oct 2016 08:30:48.645,257.055
16,21 Oct 2016 10:07:16.120,21 Oct 2016 10:12:27.342,311.222
17,22 Oct 2016 09:36:19.239,22 Oct 2016 09:39:20.067,180.828
18,23 Oct 2016 09:04:26.591,23 Oct 2016 09:05:44.926,78.334
19,10 Jan 2017 12:21:13.082,10 Jan 2017 12:22:18.408,65.326
20,13 Jan 2017 12:20:10.370,13 Jan 2017 12:22:09.988,119.619
21,16 Jan 2017 12:19:39.899,16 Jan 2017 12:21:46.794,126.895
22,17 Jan 2017 11:47:26.263,17 Jan 2017 11:53:44.542,378.279
23,18 Jan 2017 00:36:01.816,18 Jan 2017 00:36:38.134,36.319
24,19 Jan 2017 00:03:50.453,19 Jan 2017 00:04:21.350,30.897
25,19 Jan 2017 01:43:18.496,19 Jan 2017 01:44:54.736,96.240
26,19 Jan 2017 12:19:25.794,19 Jan 2017 12:21:08.996,103.202
27,20 Jan 2017 01:09:12.114,20 Jan 2017 01:12:47.097,214.983
28,20 Jan 2017 11:46:38.430,20 Jan 2017 11:55:01.463,503.033
29,21 Jan 2017 00:35:46.558,21 Jan 2017 00:40:50.867,304.309
30,21 Jan 2017 02:21:11.499,21 Jan 2017 02:21:25.970,14.470
31,21 Jan 2017 11:15:10.239,21 Jan 2017 11:19:01.255,231.016
32,22 Jan 2017 00:03:02.369,22 Jan 2017 00:09:11.503,369.134
33,22 Jan 2017 01:44:13.415,22 Jan 2017 01:49:48.175,334.759
34,22 Jan 2017 12:19:23.259,22 Jan 2017 12:20:16.830,53.570
35,22 Jan 2017 23:31:22.436,22 Jan 2017 23:37:08.993,346.557
36,23 Jan 2017 01:09:35.627,23 Jan 2017 01:18:44.389,548.763
37,23 Jan 2017 11:46:14.590,23 Jan 2017 11:55:49.505,574.915
38,24 Jan 2017 00:35:46.153,24 Jan 2017 00:46:12.321,626.168
39,24 Jan 2017 11:13:46.698,24 Jan 2017 11:20:57.363,430.665
40,25 Jan 2017 00:02:36.115,25 Jan 2017 00:12:30.084,593.968
41,25 Jan 2017 01:45:43.958,25 Jan 2017 01:51:06.874,322.915
42,25 Jan 2017 23:30:12.033,25 Jan 2017 23:38:14.389,482.356
43,26 Jan 2017 01:10:16.277,26 Jan 2017 01:19:09.220,532.944
44,26 Jan 2017 11:46:04.881,26 Jan 2017 11:56:18.777,613.896
45,26 Jan 2017 22:59:33.748,26 Jan 2017 23:02:26.294,172.546
46,27 Jan 2017 00:35:59.959,27 Jan 2017 00:46:13.453,613.494
47,27 Jan 2017 11:13:09.301,27 Jan 2017 11:22:02.209,532.908
48,28 Jan 2017 00:02:26.208,28 Jan 2017 00:12:47.528,621.320
49,28 Jan 2017 10:41:12.110,28 Jan 2017 10:46:34.007,321.897
50,28 Jan 2017 23:29:32.569,28 Jan 2017 23:38:53.769,561.201
51,29 Jan 2017 01:11:20.801,29 Jan 2017 01:18:32.047,431.246
52,29 Jan 2017 11:46:05.926,29 Jan 2017 11:56:32.800,626.874
53,29 Jan 2017 22:57:42.908,29 Jan 2017 23:04:17.425,394.517
54,30 Jan 2017 00:36:29.026,30 Jan 2017 00:46:03.879,574.853
55,30 Jan 2017 11:12:51.052,30 Jan 2017 11:22:43.119,592.066
56,31 Jan 2017 00:02:30.735,31 Jan 2017 00:12:55.053,624.318
57,31 Jan 2017 10:40:11.909,31 Jan 2017 10:48:05.051,473.142
58,31 Jan 2017 23:29:12.366,31 Jan 2017 23:39:18.579,606.213
59,1 Feb 2017 01:13:16.102,1 Feb 2017 01:17:09.283,233.180
60,1 Feb 2017 10:09:41.408,1 Feb 2017 10:11:04.539,83.131
61,1 Feb 2017 11:46:16.737,1 Feb 2017 11:56:32.638,615.901
62,1 Feb 2017 23:00:14.461,1 Feb 2017 23:05:11.404,296.943
63,2 Feb 2017 00:37:16.840,2 Feb 2017 00:45:40.262,503.422
64,2 Feb 2017 11:12:45.364,2 Feb 2017 11:23:06.885,621.522
65,3 Feb 2017 00:02:49.638,3 Feb 2017 00:12:52.707,603.069
66,3 Feb 2017 10:39:42.511,3 Feb 2017 10:49:00.295,557.784
67,3 Feb 2017 23:29:07.589,3 Feb 2017 23:39:32.525,624.936
68,4 Feb 2017 10:07:26.722,4 Feb 2017 10:13:53.626,386.904
69,4 Feb 2017 11:46:37.888,4 Feb 2017 11:56:17.668,579.779
70,4 Feb 2017 23:02:43.677,4 Feb 2017 23:05:45.090,181.414
71,5 Feb 2017 00:38:33.409,5 Feb 2017 00:44:52.856,379.447
72,5 Feb 2017 11:12:49.893,5 Feb 2017 11:23:15.980,626.087
73,6 Feb 2017 00:03:24.650,6 Feb 2017 00:12:38.858,554.208
74,6 Feb 2017 10:39:29.138,6 Feb 2017 10:49:34.809,605.670
75,6 Feb 2017 23:29:17.048,6 Feb 2017 23:39:36.738,619.690
76,7 Feb 2017 10:06:40.651,7 Feb 2017 10:15:08.857,508.206
77,7 Feb 2017 11:47:12.050,7 Feb 2017 11:55:45.124,513.074
78,7 Feb 2017 23:05:10.054,7 Feb 2017 23:06:05.929,55.875
79,8 Feb 2017 00:41:51.478,8 Feb 2017 00:42:09.277,17.799
80,8 Feb 2017 09:35:07.342,8 Feb 2017 09:39:14.235,246.893
81,8 Feb 2017 11:13:04.205,8 Feb 2017 11:23:10.863,606.658
82,9 Feb 2017 00:04:20.700,9 Feb 2017 00:12:08.758,468.057
83,9 Feb 2017 10:39:27.220,9 Feb 2017 10:49:53.343,626.122
84,9 Feb 2017 23:29:41.248,9 Feb 2017 23:39:30.745,589.496
85,10 Feb 2017 10:06:17.761,10 Feb 2017 10:15:56.025,578.265
86,10 Feb 2017 11:48:06.891,10 Feb 2017 11:54:47.120,400.229
87,11 Feb 2017 09:33:48.237,11 Feb 2017 09:41:05.965,437.728
88,11 Feb 2017 11:13:29.493,11 Feb 2017 11:22:50.281,560.788
89,12 Feb 2017 00:05:53.709,12 Feb 2017 00:11:06.780,313.071
90,12 Feb 2017 10:39:35.193,12 Feb 2017 10:49:57.544,622.352
91,12 Feb 2017 23:30:22.760,12 Feb 2017 23:39:12.100,529.340
92,13 Feb 2017 10:06:08.760,13 Feb 2017 10:16:24.668,615.908
93,13 Feb 2017 11:50:01.902,13 Feb 2017 11:52:43.891,161.988
94,14 Feb 2017 09:33:12.215,14 Feb 2017 09:42:09.506,537.291
95,14 Feb 2017 11:14:09.563,14 Feb 2017 11:22:10.278,480.715
96,15 Feb 2017 09:01:12.081,15 Feb 2017 09:06:44.709,332.627
97,15 Feb 2017 10:39:53.152,15 Feb 2017 10:49:47.313,594.161
98,15 Feb 2017 23:31:28.643,15 Feb 2017 23:38:33.967,425.324
99,16 Feb 2017 10:06:10.429,16 Feb 2017 10:16:38.147,627.718
100,17 Feb 2017 09:32:54.826,17 Feb 2017 09:42:49.617,594.790
101,17 Feb 2017 11:15:16.282,17 Feb 2017 11:20:58.766,342.484
102,18 Feb 2017 09:00:14.381,18 Feb 2017 09:08:13.292,478.911
103,18 Feb 2017 10:40:23.008,18 Feb 2017 10:42:43.281,140.273
104,18 Feb 2017 10:44:27.004,18 Feb 2017 10:49:20.651,293.647
105,18 Feb 2017 23:33:28.291,18 Feb 2017 23:37:07.281,218.990
106,19 Feb 2017 10:06:21.853,19 Feb 2017 10:06:37.948,16.095
107,19 Feb 2017 10:14:47.934,19 Feb 2017 10:16:37.435,109.501
108,25 Apr 2017 04:00:01.984,25 Apr 2017 04:00:28.704,26.720
109,26 Apr 2017 03:26:32.716,26 Apr 2017 03:27:14.349,41.632
110,27 Apr 2017 02:53:32.495,27 Apr 2017 02:54:00.502,28.007
111,28 Apr 2017 04:00:22.283,28 Apr 2017 04:01:16.258,53.975
112,29 Apr 2017 03:26:36.509,29 Apr 2017 03:28:03.543,87.034
113,30 Apr 2017 02:53:17.917,30 Apr 2017 02:54:51.415,93.498
114,1 May 2017 02:20:32.720,1 May 2017 02:21:39.904,67.184
115,1 May 2017 04:00:55.123,1 May 2017 04:02:09.107,73.984
116,2 May 2017 03:26:50.054,2 May 2017 03:28:58.297,128.244
117,3 May 2017 02:53:15.142,3 May 2017 02:55:48.168,153.026
118,4 May 2017 02:20:08.072,4 May 2017 02:22:38.765,150.693
119,4 May 2017 04:01:47.270,4 May 2017 04:03:08.120,80.850
120,5 May 2017 01:47:43.195,5 May 2017 01:49:30.117,106.923
121,5 May 2017 03:27:14.332,5 May 2017 03:29:59.532,165.200
122,6 May 2017 02:53:22.341,6 May 2017 02:56:51.754,209.414
123,7 May 2017 02:19:57.983,7 May 2017 02:23:44.825,226.842
124,7 May 2017 04:03:28.527,7 May 2017 04:04:14.360,45.833
125,8 May 2017 01:47:04.288,8 May 2017 01:50:38.793,214.506
126,8 May 2017 03:27:52.747,8 May 2017 03:31:08.396,195.648
127,9 May 2017 01:15:12.430,9 May 2017 01:17:33.714,141.284
128,9 May 2017 02:53:39.452,9 May 2017 02:58:03.389,263.937
129,10 May 2017 02:19:58.817,10 May 2017 02:24:59.391,300.574
130,11 May 2017 01:46:45.423,11 May 2017 01:51:56.462,311.040
131,11 May 2017 03:28:55.522,11 May 2017 03:32:26.295,210.772
132,12 May 2017 01:14:08.714,12 May 2017 01:18:54.668,285.954
133,12 May 2017 02:54:08.109,12 May 2017 02:59:24.583,316.475
134,13 May 2017 02:20:09.434,13 May 2017 02:26:24.080,374.646
135,14 May 2017 01:46:39.430,14 May 2017 01:53:24.849,405.419
136,15 May 2017 01:13:38.248,15 May 2017 01:20:26.978,408.731
137,15 May 2017 02:54:53.184,15 May 2017 03:00:57.180,363.996
138,16 May 2017 00:41:26.142,16 May 2017 00:47:30.539,364.396
139,16 May 2017 02:20:30.308,16 May 2017 02:28:00.856,450.548
140,17 May 2017 01:46:43.759,17 May 2017 01:55:06.058,502.300
141,18 May 2017 01:13:24.401,18 May 2017 01:22:12.894,528.493
142,18 May 2017 02:56:11.462,18 May 2017 03:01:04.194,292.732
143,19 May 2017 00:40:37.952,19 May 2017 00:48:58.804,500.851
144,19 May 2017 02:21:03.904,19 May 2017 02:29:42.551,518.647
145,20 May 2017 00:09:12.992,20 May 2017 00:12:55.546,222.554
146,20 May 2017 01:46:57.864,20 May 2017 01:57:02.651,604.787
147,21 May 2017 01:13:22.228,21 May 2017 01:23:47.194,624.966
148,22 May 2017 00:40:14.280,22 May 2017 00:49:48.161,573.881
149,22 May 2017 02:21:57.310,22 May 2017 02:28:47.388,410.077
150,23 May 2017 00:10:36.823,23 May 2017 00:14:55.056,258.233
151,23 May 2017 01:47:22.794,23 May 2017 01:56:47.415,564.621
152,24 May 2017 01:13:29.996,24 May 2017 01:23:52.973,622.977
153,25 May 2017 00:40:04.905,25 May 2017 00:50:18.567,613.662
154,25 May 2017 02:23:43.425,25 May 2017 02:26:54.473,191.049
155,26 May 2017 00:12:20.659,26 May 2017 00:16:01.422,220.763
156,26 May 2017 01:48:02.112,26 May 2017 01:56:09.562,487.450
157,27 May 2017 01:13:47.716,27 May 2017 01:23:44.357,596.642
158,28 May 2017 00:40:06.352,28 May 2017 00:50:33.643,627.291
159,29 May 2017 00:14:00.871,29 May 2017 00:16:43.523,162.652
160,29 May 2017 01:49:06.621,29 May 2017 01:55:01.663,355.042
161,30 May 2017 01:14:17.125,30 May 2017 01:23:19.531,542.406
162,31 May 2017 00:40:17.579,31 May 2017 00:50:34.513,616.934
163,1 Jun 2017 00:15:36.500,1 Jun 2017 00:17:08.358,91.858
164,2 Jun 2017 01:15:03.312,2 Jun 2017 01:22:33.235,449.923
165,3 Jun 2017 00:40:39.132,3 Jun 2017 00:50:20.594,581.462
166,4 Jun 2017 00:17:06.673,4 Jun 2017 00:17:18.461,11.788
167,5 Jun 2017 01:16:24.298,5 Jun 2017 01:21:07.188,282.890
168,6 Jun 2017 00:41:13.597,6 Jun 2017 00:49:49.182,515.586
169,9 Jun 2017 00:42:08.432,9 Jun 2017 00:48:52.623,404.191
170,12 Jun 2017 00:44:00.531,12 Jun 2017 00:46:53.736,173.204
171,12 Jun 2017 10:13:37.370,12 Jun 2017 10:16:38.680,181.309
172,15 Jun 2017 10:11:41.362,15 Jun 2017 10:18:27.975,406.613
173,18 Jun 2017 10:10:45.505,18 Jun 2017 10:19:22.255,516.750
174,19 Jun 2017 09:39:25.328,19 Jun 2017 09:44:13.441,288.113
175,21 Jun 2017 10:10:14.551,21 Jun 2017 10:19:56.485,581.934
176,22 Jun 2017 09:38:00.781,22 Jun 2017 09:45:33.204,452.424
177,24 Jun 2017 10:10:01.027,24 Jun 2017 10:20:17.943,616.917
178,25 Jun 2017 09:37:15.153,25 Jun 2017 09:46:19.070,543.917
179,26 Jun 2017 09:05:31.330,26 Jun 2017 09:11:31.070,359.740
180,27 Jun 2017 10:10:02.289,27 Jun 2017 10:20:29.164,626.874
181,28 Jun 2017 09:36:50.842,28 Jun 2017 09:46:48.401,597.559
182,29 Jun 2017 09:04:24.612,29 Jun 2017 09:12:34.889,490.278
183,30 Jun 2017 08:33:35.341,30 Jun 2017 08:36:57.763,202.422
184,30 Jun 2017 10:10:17.825,30 Jun 2017 10:20:30.646,612.821
185,1 Jul 2017 09:36:42.705,1 Jul 2017 09:47:06.164,623.459
186,2 Jul 2017 09:03:47.469,2 Jul 2017 09:13:14.063,566.593
187,3 Jul 2017 08:31:46.074,3 Jul 2017 08:38:40.860,414.786
188,3 Jul 2017 10:10:48.785,3 Jul 2017 10:20:21.290,572.505
189,4 Jul 2017 09:36:48.995,4 Jul 2017 09:47:14.037,625.042
190,5 Jul 2017 09:03:29.225,5 Jul 2017 09:13:39.044,609.819
191,6 Jul 2017 08:30:52.006,6 Jul 2017 08:39:33.867,521.862
192,6 Jul 2017 10:11:38.897,6 Jul 2017 10:19:57.540,498.644
193,7 Jul 2017 07:59:27.737,7 Jul 2017 08:04:28.850,301.112
194,7 Jul 2017 09:37:09.745,7 Jul 2017 09:47:11.989,602.244
195,8 Jul 2017 09:03:49.600,8 Jul 2017 09:13:53.287,603.687
196,9 Jul 2017 08:30:55.315,9 Jul 2017 08:40:07.456,552.141
197,9 Jul 2017 10:12:58.966,9 Jul 2017 10:19:08.846,369.881
198,10 Jul 2017 07:58:06.555,10 Jul 2017 08:05:45.774,459.219
199,10 Jul 2017 09:38:29.706,10 Jul 2017 09:46:58.228,508.522
200,11 Jul 2017 09:05:32.280,11 Jul 2017 09:13:57.802,505.523
201,12 Jul 2017 08:32:33.468,12 Jul 2017 08:40:28.468,475.000
202,13 Jul 2017 07:59:33.341,13 Jul 2017 08:06:30.651,417.310
203,13 Jul 2017 09:40:03.283,13 Jul 2017 09:46:27.691,384.408
204,14 Jul 2017 07:26:31.981,14 Jul 2017 07:31:45.185,313.204
205,14 Jul 2017 09:07:01.842,14 Jul 2017 09:13:51.994,410.152
206,15 Jul 2017 08:33:59.240,15 Jul 2017 08:40:39.300,400.060
207,16 Jul 2017 08:00:55.543,16 Jul 2017 08:06:59.401,363.858
208,16 Jul 2017 09:41:25.233,16 Jul 2017 09:45:23.116,237.883
209,17 Jul 2017 07:27:50.807,17 Jul 2017 07:32:47.209,296.402
210,17 Jul 2017 09:08:20.429,17 Jul 2017 09:13:33.242,312.813
211,18 Jul 2017 06:54:45.088,18 Jul 2017 06:57:16.457,151.368
212,18 Jul 2017 08:35:14.648,18 Jul 2017 08:40:40.369,325.721
213,19 Jul 2017 08:02:07.947,19 Jul 2017 08:07:16.714,308.766
214,20 Jul 2017 07:29:00.360,20 Jul 2017 07:33:25.563,265.203
215,20 Jul 2017 09:09:29.784,20 Jul 2017 09:12:54.169,204.384
216,21 Jul 2017 06:55:51.952,21 Jul 2017 06:58:54.239,182.287
217,21 Jul 2017 08:36:21.323,21 Jul 2017 08:40:30.484,249.162
218,22 Jul 2017 08:03:12.066,22 Jul 2017 08:07:24.165,252.099
219,23 Jul 2017 07:30:02.069,23 Jul 2017 07:33:49.996,227.927
220,23 Jul 2017 09:10:31.320,23 Jul 2017 09:11:20.957,49.637
221,24 Jul 2017 06:56:51.359,24 Jul 2017 06:59:45.955,174.596
222,24 Jul 2017 08:37:20.568,24 Jul 2017 08:40:05.906,165.338
223,25 Jul 2017 06:23:39.973,25 Jul 2017 06:24:44.314,64.341
224,25 Jul 2017 08:04:09.140,25 Jul 2017 08:07:21.639,192.498
225,26 Jul 2017 07:30:57.069,26 Jul 2017 07:34:03.782,186.713
226,27 Jul 2017 06:57:44.392,27 Jul 2017 07:00:18.827,154.435
227,27 Jul 2017 08:38:13.462,27 Jul 2017 08:39:15.385,61.923
228,28 Jul 2017 06:24:31.131,28 Jul 2017 06:25:58.629,87.499
229,28 Jul 2017 08:05:00.160,28 Jul 2017 08:07:07.238,127.078
230,29 Jul 2017 07:31:46.309,29 Jul 2017 07:34:07.837,141.527
231,30 Jul 2017 06:58:31.923,30 Jul 2017 07:00:39.319,127.397
232,31 Jul 2017 06:25:17.035,31 Jul 2017 06:26:42.495,85.460
233,31 Jul 2017 08:05:45.949,31 Jul 2017 08:06:35.614,49.664
234,1 Aug 2017 07:32:30.542,1 Aug 2017 07:34:01.482,90.940
235,2 Aug 2017 06:59:14.674,2 Aug 2017 07:00:49.675,95.001
236,3 Aug 2017 06:25:58.355,3 Aug 2017 06:27:10.607,72.252
237,4 Aug 2017 05:52:41.614,4 Aug 2017 05:52:59.645,18.032
238,4 Aug 2017 07:33:10.402,4 Aug 2017 07:33:41.945,31.542
239,5 Aug 2017 06:59:53.218,5 Aug 2017 07:00:50.248,57.030
240,6 Aug 2017 06:26:35.641,6 Aug 2017 06:27:27.416,51.775
241,7 Aug 2017 05:53:17.684,7 Aug 2017 05:53:37.169,19.485
242,8 Aug 2017 07:00:28.036,8 Aug 2017 07:00:39.735,11.699
243,9 Aug 2017 06:27:09.333,9 Aug 2017 06:27:34.387,25.054
244,10 Aug 2017 05:53:50.285,10 Aug 2017 05:54:01.031,10.745
245,25 Sep 2017 02:01:09.045,25 Sep 2017 02:01:22.330,13.285
246,26 Sep 2017 01:27:23.892,26 Sep 2017 01:27:45.836,21.944
247,27 Sep 2017 00:53:35.649,27 Sep 2017 00:53:38.485,2.837
248,27 Sep 2017 02:34:02.066,27 Sep 2017 02:34:09.466,7.400
249,28 Sep 2017 02:00:09.540,28 Sep 2017 02:01:21.643,72.103
250,29 Sep 2017 01:26:11.660,29 Sep 2017 01:28:01.446,109.787
251,30 Sep 2017 00:52:06.224,30 Sep 2017 00:54:13.997,127.773
252,30 Sep 2017 02:32:31.170,30 Sep 2017 02:33:24.348,53.178
253,1 Oct 2017 00:17:49.140,1 Oct 2017 00:19:49.333,120.193
254,1 Oct 2017 01:58:13.003,1 Oct 2017 02:01:09.508,176.505
255,2 Oct 2017 01:23:32.431,2 Oct 2017 01:28:07.293,274.863
256,3 Oct 2017 00:47:38.610,3 Oct 2017 00:54:36.523,417.913
257,3 Oct 2017 02:29:55.831,3 Oct 2017 02:31:05.572,69.741
258,4 Oct 2017 00:11:36.862,4 Oct 2017 00:20:36.813,539.951
259,4 Oct 2017 01:52:49.892,4 Oct 2017 02:00:41.308,471.416
260,4 Oct 2017 23:39:56.097,4 Oct 2017 23:45:46.484,350.387
261,5 Oct 2017 01:18:11.844,5 Oct 2017 01:28:02.950,591.106
262,6 Oct 2017 00:44:22.314,6 Oct 2017 00:54:48.726,626.411
263,6 Oct 2017 11:22:21.881,6 Oct 2017 11:22:53.551,31.670
264,7 Oct 2017 00:11:12.188,7 Oct 2017 00:21:07.330,595.142
265,7 Oct 2017 01:54:22.745,7 Oct 2017 01:59:42.014,319.268
266,7 Oct 2017 23:38:47.755,7 Oct 2017 23:46:52.723,484.968
267,8 Oct 2017 01:18:54.166,8 Oct 2017 01:27:46.035,531.869
268,8 Oct 2017 23:08:05.933,8 Oct 2017 23:11:08.882,182.949
269,9 Oct 2017 00:44:37.693,9 Oct 2017 00:54:51.195,613.502
270,9 Oct 2017 11:21:46.658,9 Oct 2017 11:24:37.599,170.941
271,10 Oct 2017 00:11:03.860,10 Oct 2017 00:21:26.115,622.255
272,10 Oct 2017 10:49:48.229,10 Oct 2017 10:55:16.666,328.436
273,10 Oct 2017 23:38:10.025,10 Oct 2017 23:47:33.299,563.274
274,11 Oct 2017 01:20:00.616,11 Oct 2017 01:27:09.886,429.270
275,11 Oct 2017 23:06:10.978,11 Oct 2017 23:12:58.454,407.476
276,12 Oct 2017 00:45:08.415,12 Oct 2017 00:54:42.911,574.497
277,12 Oct 2017 11:21:30.313,12 Oct 2017 11:26:24.935,294.623
278,13 Oct 2017 00:11:09.999,13 Oct 2017 00:21:34.978,624.979
279,13 Oct 2017 10:48:50.886,13 Oct 2017 10:56:47.605,476.720

"Access","Start Time (UTCG)","Stop Time (UTCG)","Duration (sec)"
1,14 Oct 2016 09:06:03.487,14 Oct 2016 09:13:21.172,437.685
2,14 Oct 2016 10:45:26.404,14 Oct 2016 10:54:46.466,560.062
3,14 Oct 2016 23:04:20.240,14 Oct 2016 23:09:17.803,297.563
4,15 Oct 2016 10:11:21.055,15 Oct 2016 10:21:42.279,621.224
5,16 Oct 2016 09:37:56.392,16 Oct 2016 09:48:09.731,613.339
6,16 Oct 2016 11:23:02.606,16 Oct 2016 11:25:05.212,122.607
7,17 Oct 2016 09:05:13.335,17 Oct 2016 09:14:07.905,534.570
8,17 Oct 2016 10:46:19.358,17 Oct 2016 10:54:17.462,478.104
9,18 Oct 2016 08:33:36.221,18 Oct 2016 08:39:13.129,336.908
10,18 Oct 2016 10:11:43.062,18 Oct 2016 10:21:36.511,593.448
11,19 Oct 2016 09:37:54.543,19 Oct 2016 09:48:20.416,625.873
12,20 Oct 2016 09:04:45.446,20 Oct 2016 09:14:37.141,591.695
13,20 Oct 2016 10:47:46.545,20 Oct 2016 10:53:19.257,332.711
14,21 Oct 2016 08:35:17.529,21 Oct 2016 08:40:19.908,302.378
15,21 Oct 2016 10:16:04.073,21 Oct 2016 10:21:18.451,314.379
16,22 Oct 2016 09:45:15.962,22 Oct 2016 09:48:21.410,185.447
17,23 Oct 2016 09:13:25.646,23 Oct 2016 09:14:54.476,88.830
18,14 Jan 2017 11:57:05.151,14 Jan 2017 12:01:40.987,275.837
19,17 Jan 2017 11:55:53.503,17 Jan 2017 12:03:23.719,450.217
20,18 Jan 2017 00:44:47.627,18 Jan 2017 00:45:31.367,43.740
21,19 Jan 2017 00:12:18.253,19 Jan 2017 00:13:14.015,55.762
22,19 Jan 2017 01:52:38.458,19 Jan 2017 01:53:47.360,68.902
23,20 Jan 2017 01:18:17.315,20 Jan 2017 01:21:39.037,201.722
24,20 Jan 2017 11:55:19.572,20 Jan 2017 12:04:23.676,544.105
25,21 Jan 2017 00:44:39.770,21 Jan 2017 00:49:41.917,302.147
26,21 Jan 2017 11:23:13.238,21 Jan 2017 11:29:05.714,352.477
27,22 Jan 2017 00:11:41.982,22 Jan 2017 00:18:01.220,379.239
28,22 Jan 2017 01:53:47.682,22 Jan 2017 01:58:37.767,290.085
29,22 Jan 2017 23:39:36.631,22 Jan 2017 23:46:41.709,425.079
30,23 Jan 2017 01:18:48.698,23 Jan 2017 01:27:30.896,522.198
31,23 Jan 2017 11:55:03.229,23 Jan 2017 12:05:01.288,598.060
32,24 Jan 2017 00:44:46.219,24 Jan 2017 00:55:09.084,622.865
33,24 Jan 2017 11:22:19.643,24 Jan 2017 11:30:28.676,489.034
34,25 Jan 2017 00:11:24.079,25 Jan 2017 00:21:35.042,610.963
35,25 Jan 2017 01:56:01.030,25 Jan 2017 01:58:56.939,175.909
36,25 Jan 2017 10:51:11.095,25 Jan 2017 10:54:07.372,176.277
37,25 Jan 2017 23:38:44.063,25 Jan 2017 23:47:31.221,527.158
38,26 Jan 2017 01:19:39.733,26 Jan 2017 01:27:48.397,488.664
39,26 Jan 2017 11:54:58.896,26 Jan 2017 12:05:22.336,623.440
40,26 Jan 2017 23:07:13.708,26 Jan 2017 23:12:30.801,317.093
41,27 Jan 2017 00:45:07.172,27 Jan 2017 00:55:04.780,597.608
42,27 Jan 2017 11:21:52.922,27 Jan 2017 11:31:19.821,566.899
43,28 Jan 2017 00:11:21.260,28 Jan 2017 00:21:47.098,625.838
44,28 Jan 2017 10:49:30.528,28 Jan 2017 10:56:20.807,410.279
45,28 Jan 2017 23:38:14.764,28 Jan 2017 23:48:02.252,587.488
46,29 Jan 2017 01:21:02.588,29 Jan 2017 01:26:54.877,352.289
47,29 Jan 2017 11:55:04.587,29 Jan 2017 12:05:28.895,624.308
48,29 Jan 2017 23:05:55.828,29 Jan 2017 23:13:42.391,466.564
49,30 Jan 2017 00:45:44.704,30 Jan 2017 00:54:48.503,543.800
50,30 Jan 2017 11:21:41.176,30 Jan 2017 11:31:51.318,610.142
51,31 Jan 2017 00:11:32.636,31 Jan 2017 00:21:49.454,616.818
52,31 Jan 2017 10:48:48.880,31 Jan 2017 10:57:30.155,521.275
