Prescott.csv

"Access","Start Time (UTCG)","Stop Time (UTCG)","Duration (sec)"
1,14 Oct 2016 00:54:10.482,14 Oct 2016 00:56:38.248,147.766
2,14 Oct 2016 11:59:45.092,14 Oct 2016 12:10:05.074,619.982
3,15 Oct 2016 11:26:51.442,15 Oct 2016 11:36:12.163,560.721
4,15 Oct 2016 13:08:18.656,15 Oct 2016 13:16:14.166,475.510
5,16 Oct 2016 10:54:47.585,16 Oct 2016 11:01:43.296,415.711
6,16 Oct 2016 12:33:40.990,16 Oct 2016 12:43:29.539,588.548
7,17 Oct 2016 00:50:23.377,17 Oct 2016 00:55:43.111,319.734
8,17 Oct 2016 11:59:48.129,17 Oct 2016 12:10:14.195,626.066
9,18 Oct 2016 11:26:31.633,18 Oct 2016 11:36:35.995,604.362
10,18 Oct 2016 13:09:43.944,18 Oct 2016 13:15:23.510,339.566
11,19 Oct 2016 10:53:54.819,19 Oct 2016 11:02:31.643,516.824
12,19 Oct 2016 12:34:22.173,19 Oct 2016 12:43:13.891,531.717
13,20 Oct 2016 00:50:34.069,20 Oct 2016 00:53:56.533,202.464
14,20 Oct 2016 10:22:24.007,20 Oct 2016 10:27:35.460,311.452
15,20 Oct 2016 12:00:04.310,20 Oct 2016 12:10:15.153,610.843
16,21 Oct 2016 11:30:03.428,21 Oct 2016 11:36:50.568,407.140
17,22 Oct 2016 10:58:59.543,22 Oct 2016 11:03:03.065,243.522
18,22 Oct 2016 12:39:35.284,22 Oct 2016 12:42:41.990,186.706
19,23 Oct 2016 10:27:04.911,23 Oct 2016 10:28:44.206,99.295
20,23 Oct 2016 12:07:38.606,23 Oct 2016 12:10:06.939,148.334
21,24 Oct 2016 11:35:21.248,24 Oct 2016 11:36:56.956,95.708
22,25 Oct 2016 11:02:51.321,25 Oct 2016 11:03:23.532,32.211
23,9 Jan 2017 14:17:04.385,9 Jan 2017 14:19:36.478,152.094
24,12 Jan 2017 14:15:24.012,12 Jan 2017 14:21:56.915,392.903
25,15 Jan 2017 14:14:44.615,15 Jan 2017 14:23:10.509,505.893
26,16 Jan 2017 13:42:55.783,16 Jan 2017 13:47:25.270,269.487
27,18 Jan 2017 14:14:25.158,18 Jan 2017 14:23:58.711,573.553
28,19 Jan 2017 03:07:00.204,19 Jan 2017 03:07:53.967,53.763
29,19 Jan 2017 13:41:49.665,19 Jan 2017 13:49:09.465,439.800
30,20 Jan 2017 02:33:53.252,20 Jan 2017 02:35:47.299,114.047
31,20 Jan 2017 04:16:18.039,20 Jan 2017 04:16:21.510,3.471
32,21 Jan 2017 02:01:29.001,21 Jan 2017 02:03:52.306,143.305
33,21 Jan 2017 03:41:18.243,21 Jan 2017 03:44:27.520,189.277
34,21 Jan 2017 14:14:17.782,21 Jan 2017 14:24:29.655,611.872
35,22 Jan 2017 01:30:34.734,22 Jan 2017 01:32:14.758,100.025
36,22 Jan 2017 03:07:11.666,22 Jan 2017 03:12:51.612,339.946
37,22 Jan 2017 13:41:18.845,22 Jan 2017 13:50:12.661,533.816
38,23 Jan 2017 02:33:42.783,23 Jan 2017 02:41:52.102,489.319
39,23 Jan 2017 04:18:24.893,23 Jan 2017 04:21:37.912,193.019
40,23 Jan 2017 13:09:08.249,23 Jan 2017 13:14:52.550,344.301
41,24 Jan 2017 02:00:51.083,24 Jan 2017 02:10:08.053,556.970
42,24 Jan 2017 03:42:11.811,24 Jan 2017 03:50:14.491,482.680
43,24 Jan 2017 14:14:19.605,24 Jan 2017 14:24:46.417,626.813
44,25 Jan 2017 01:28:50.318,25 Jan 2017 01:35:37.223,406.905
45,25 Jan 2017 03:07:36.749,25 Jan 2017 03:17:28.383,591.634
46,25 Jan 2017 13:41:04.176,25 Jan 2017 13:50:54.354,590.178
47,26 Jan 2017 02:33:45.748,26 Jan 2017 02:44:12.265,626.517
48,26 Jan 2017 13:08:19.188,26 Jan 2017 13:16:17.771,478.583
49,27 Jan 2017 02:00:31.028,27 Jan 2017 02:10:33.364,602.336
50,27 Jan 2017 03:43:35.007,27 Jan 2017 03:49:27.133,352.125
51,27 Jan 2017 12:37:02.076,27 Jan 2017 12:39:57.935,175.859
52,27 Jan 2017 14:14:29.666,27 Jan 2017 14:24:50.070,620.404
53,28 Jan 2017 01:27:56.388,28 Jan 2017 01:36:27.927,511.539
54,28 Jan 2017 03:08:17.578,28 Jan 2017 03:17:14.328,536.749
55,28 Jan 2017 13:41:00.272,28 Jan 2017 13:51:20.189,619.917
56,29 Jan 2017 00:56:30.434,29 Jan 2017 01:01:28.008,297.573
57,29 Jan 2017 02:34:01.857,29 Jan 2017 02:44:14.542,612.685
58,29 Jan 2017 13:07:55.091,29 Jan 2017 13:17:12.461,557.369
59,30 Jan 2017 02:00:25.383,30 Jan 2017 02:10:49.270,623.887
60,30 Jan 2017 12:35:29.510,30 Jan 2017 12:42:10.635,401.125
61,30 Jan 2017 14:14:48.211,30 Jan 2017 14:24:40.367,592.156
62,31 Jan 2017 01:27:25.338,31 Jan 2017 01:37:00.997,575.659
63,31 Jan 2017 03:09:19.543,31 Jan 2017 03:16:44.560,445.017
64,31 Jan 2017 13:41:05.076,31 Jan 2017 13:51:32.383,627.307
65,1 Feb 2017 00:55:42.783,1 Feb 2017 01:02:40.615,417.832
66,1 Feb 2017 02:34:32.114,1 Feb 2017 02:44:07.743,575.629
67,1 Feb 2017 13:07:44.628,1 Feb 2017 13:17:48.270,603.642
68,2 Feb 2017 02:00:32.930,2 Feb 2017 02:10:56.942,624.012
69,2 Feb 2017 12:34:51.677,2 Feb 2017 12:43:22.763,511.086
70,2 Feb 2017 14:15:16.908,2 Feb 2017 14:24:15.582,538.675
71,3 Feb 2017 01:27:10.572,3 Feb 2017 01:37:22.857,612.285
72,3 Feb 2017 03:11:00.714,3 Feb 2017 03:15:41.379,280.665
73,3 Feb 2017 12:02:58.879,3 Feb 2017 12:07:42.066,283.188
74,3 Feb 2017 13:41:18.070,3 Feb 2017 13:51:31.525,613.456
75,4 Feb 2017 00:58:44.512,4 Feb 2017 01:03:23.996,279.484
76,4 Feb 2017 02:35:19.455,4 Feb 2017 02:43:49.118,509.663
77,4 Feb 2017 13:07:43.979,4 Feb 2017 13:18:09.245,625.266
78,5 Feb 2017 02:00:53.805,5 Feb 2017 02:10:56.284,602.479
79,5 Feb 2017 12:34:33.124,5 Feb 2017 12:44:10.173,577.048
80,5 Feb 2017 14:16:00.217,5 Feb 2017 14:23:31.103,450.885
81,6 Feb 2017 01:27:09.621,6 Feb 2017 01:37:35.889,626.268
82,6 Feb 2017 12:01:56.133,6 Feb 2017 12:09:22.986,446.852
83,6 Feb 2017 13:41:39.947,6 Feb 2017 13:51:16.903,576.956
84,7 Feb 2017 01:01:44.566,7 Feb 2017 01:03:52.791,128.225
85,7 Feb 2017 02:36:31.611,7 Feb 2017 02:43:11.225,399.615
86,7 Feb 2017 13:07:51.708,7 Feb 2017 13:18:16.922,625.214
87,8 Feb 2017 02:01:29.571,8 Feb 2017 02:10:45.877,556.307
88,8 Feb 2017 12:34:26.436,8 Feb 2017 12:44:40.553,614.117
89,8 Feb 2017 14:17:12.626,8 Feb 2017 14:22:12.231,299.605
90,9 Feb 2017 01:27:21.761,9 Feb 2017 01:37:40.795,619.034
91,9 Feb 2017 12:01:26.593,9 Feb 2017 12:10:25.007,538.414
92,9 Feb 2017 13:42:13.075,9 Feb 2017 13:50:46.052,512.976
93,10 Feb 2017 02:38:44.953,10 Feb 2017 02:41:38.092,173.139
94,10 Feb 2017 11:29:13.432,10 Feb 2017 11:35:08.040,354.609
95,10 Feb 2017 13:08:07.731,10 Feb 2017 13:18:11.453,603.722
96,11 Feb 2017 02:02:24.273,11 Feb 2017 02:10:21.885,477.612
97,11 Feb 2017 12:34:28.877,11 Feb 2017 12:44:56.824,627.948
98,12 Feb 2017 01:27:47.601,12 Feb 2017 01:37:37.056,589.455
99,12 Feb 2017 12:01:12.766,12 Feb 2017 12:11:05.971,593.205
100,12 Feb 2017 13:43:03.839,12 Feb 2017 13:49:52.414,408.576
101,13 Feb 2017 11:28:26.557,13 Feb 2017 11:36:31.166,484.609
102,13 Feb 2017 13:08:33.222,13 Feb 2017 13:17:51.613,558.392
103,14 Feb 2017 02:03:49.609,14 Feb 2017 02:09:32.939,343.330
104,14 Feb 2017 10:57:01.880,14 Feb 2017 11:00:19.501,197.621
105,14 Feb 2017 12:34:39.543,14 Feb 2017 12:44:59.996,620.453
106,15 Feb 2017 01:28:29.346,15 Feb 2017 01:37:22.610,533.264
107,15 Feb 2017 12:01:09.548,15 Feb 2017 12:11:31.243,621.695
108,15 Feb 2017 13:44:39.204,15 Feb 2017 13:48:08.781,209.577
109,16 Feb 2017 11:28:03.562,16 Feb 2017 11:37:24.853,561.291
110,16 Feb 2017 13:09:11.492,16 Feb 2017 13:17:13.958,482.466
111,17 Feb 2017 10:55:36.130,17 Feb 2017 11:02:25.456,409.327
112,17 Feb 2017 12:34:58.737,17 Feb 2017 12:44:49.757,591.020
113,18 Feb 2017 01:29:32.646,18 Feb 2017 01:36:52.067,439.421
114,18 Feb 2017 12:01:14.980,18 Feb 2017 12:05:15.422,240.442
115,18 Feb 2017 12:08:04.752,18 Feb 2017 12:11:42.924,218.173
116,19 Feb 2017 11:27:53.892,19 Feb 2017 11:29:34.298,100.406
117,20 Feb 2017 10:54:59.922,20 Feb 2017 10:55:07.416,7.494
118,20 Feb 2017 12:35:28.228,20 Feb 2017 12:35:32.157,3.929
119,21 Feb 2017 01:31:17.016,21 Feb 2017 01:35:46.282,269.265
120,14 Apr 2017 06:28:28.727,14 Apr 2017 06:28:28.992,0.265
121,16 Apr 2017 07:02:07.154,16 Apr 2017 07:02:21.225,14.071
122,17 Apr 2017 06:28:30.466,17 Apr 2017 06:29:03.496,33.030
123,18 Apr 2017 05:55:16.712,18 Apr 2017 05:55:46.111,29.400
124,19 Apr 2017 07:02:31.705,19 Apr 2017 07:02:57.883,26.178
125,20 Apr 2017 06:28:40.467,20 Apr 2017 06:29:41.258,60.791
126,21 Apr 2017 05:55:12.596,21 Apr 2017 05:56:25.023,72.427
127,22 Apr 2017 05:22:09.315,22 Apr 2017 05:23:09.194,59.878
128,22 Apr 2017 07:03:08.380,22 Apr 2017 07:03:38.079,29.699
129,23 Apr 2017 04:49:47.742,23 Apr 2017 04:49:53.790,6.048
130,23 Apr 2017 06:28:58.877,23 Apr 2017 06:30:22.708,83.831
131,24 Apr 2017 05:55:17.301,24 Apr 2017 05:57:07.781,110.481
132,25 Apr 2017 05:21:58.430,25 Apr 2017 05:23:53.320,114.890
133,25 Apr 2017 07:04:05.322,25 Apr 2017 07:04:22.303,16.981
134,26 Apr 2017 04:49:07.800,26 Apr 2017 04:50:39.343,91.543
135,26 Apr 2017 06:29:27.211,26 Apr 2017 06:31:08.364,101.154
136,27 Apr 2017 04:17:23.018,27 Apr 2017 04:17:25.877,2.859
137,27 Apr 2017 05:55:30.194,27 Apr 2017 05:57:54.938,144.744
138,28 Apr 2017 05:21:57.578,28 Apr 2017 05:24:42.048,164.470
139,29 Apr 2017 04:48:48.457,29 Apr 2017 04:51:29.719,161.262
140,29 Apr 2017 06:30:09.570,29 Apr 2017 06:31:58.860,109.290
141,30 Apr 2017 04:16:14.625,30 Apr 2017 04:18:17.981,123.356
142,30 Apr 2017 05:55:51.842,30 Apr 2017 05:58:47.168,175.326
143,1 May 2017 05:22:05.184,1 May 2017 05:25:36.098,210.913
144,2 May 2017 04:48:41.407,2 May 2017 04:52:25.684,224.277
145,2 May 2017 06:31:18.753,2 May 2017 06:32:54.960,96.207
146,3 May 2017 04:15:43.589,3 May 2017 04:19:15.955,212.366
147,3 May 2017 05:56:24.435,3 May 2017 05:59:45.288,200.852
148,4 May 2017 03:43:35.591,4 May 2017 03:46:06.950,151.359
149,4 May 2017 05:22:21.044,4 May 2017 05:26:36.339,255.295
150,5 May 2017 04:48:43.650,5 May 2017 04:53:28.163,284.513
151,6 May 2017 04:15:29.130,6 May 2017 04:20:20.790,291.660
152,6 May 2017 05:57:13.818,6 May 2017 06:00:50.294,216.476
153,7 May 2017 03:42:45.512,7 May 2017 03:47:14.278,268.766
154,7 May 2017 05:22:46.195,7 May 2017 05:27:43.848,297.653
155,8 May 2017 03:11:36.133,8 May 2017 03:14:08.666,152.534
156,8 May 2017 04:48:54.145,8 May 2017 04:54:38.307,344.161
157,9 May 2017 04:15:25.589,9 May 2017 04:21:33.724,368.135
158,9 May 2017 05:58:42.713,9 May 2017 06:02:03.432,200.718
159,10 May 2017 03:42:21.403,10 May 2017 03:48:30.153,368.750
160,10 May 2017 05:23:23.711,10 May 2017 05:28:59.938,336.228
161,11 May 2017 03:09:57.729,11 May 2017 03:15:27.661,329.932
162,11 May 2017 04:49:13.103,11 May 2017 04:55:57.526,404.423
163,12 May 2017 04:15:30.817,12 May 2017 04:22:56.258,445.441
164,13 May 2017 03:42:11.215,13 May 2017 03:49:56.199,464.984
165,13 May 2017 05:24:22.228,13 May 2017 05:30:26.243,364.015
166,14 May 2017 03:09:19.425,14 May 2017 03:16:57.427,458.001
167,14 May 2017 04:49:42.124,14 May 2017 04:57:27.564,465.439
168,15 May 2017 02:37:30.132,15 May 2017 02:42:02.298,272.166
169,15 May 2017 04:15:44.241,15 May 2017 04:24:30.255,526.014
170,16 May 2017 03:42:10.952,16 May 2017 03:51:34.397,563.445
171,16 May 2017 05:26:42.297,16 May 2017 05:28:03.157,80.860
172,17 May 2017 03:09:00.997,17 May 2017 03:18:35.421,574.424
173,17 May 2017 04:50:25.503,17 May 2017 04:58:00.198,454.695
174,18 May 2017 02:36:25.493,18 May 2017 02:43:46.879,441.386
175,18 May 2017 04:16:06.505,18 May 2017 04:25:44.865,578.361
176,19 May 2017 03:42:19.108,19 May 2017 03:52:44.209,625.101
177,20 May 2017 03:08:54.636,20 May 2017 03:19:07.206,612.570
178,20 May 2017 04:51:36.972,20 May 2017 04:56:43.994,307.021
179,21 May 2017 02:35:55.797,21 May 2017 02:44:50.809,535.012
180,21 May 2017 04:16:39.894,21 May 2017 04:25:15.468,515.574
181,22 May 2017 03:42:35.554,22 May 2017 03:52:40.032,604.478
182,23 May 2017 03:08:57.477,23 May 2017 03:19:24.798,627.321
183,24 May 2017 02:35:42.190,24 May 2017 02:45:33.294,591.104
184,24 May 2017 04:17:30.562,24 May 2017 04:24:23.651,413.089
185,25 May 2017 03:43:01.396,25 May 2017 03:52:21.547,560.150
186,26 May 2017 03:09:08.571,26 May 2017 03:19:29.251,620.681
187,27 May 2017 02:35:39.332,27 May 2017 02:45:59.925,620.593
188,27 May 2017 04:19:03.531,27 May 2017 04:22:44.128,220.597
189,28 May 2017 03:43:39.856,28 May 2017 03:51:45.419,485.564
190,29 May 2017 03:09:28.171,29 May 2017 03:19:20.318,592.147
191,30 May 2017 02:35:45.188,30 May 2017 02:46:12.903,627.715
192,31 May 2017 03:44:40.100,31 May 2017 03:50:42.275,362.175
193,1 Jun 2017 03:09:57.983,1 Jun 2017 03:18:56.240,538.257
194,2 Jun 2017 02:35:59.249,2 Jun 2017 02:46:12.800,613.550
195,4 Jun 2017 03:10:42.514,4 Jun 2017 03:18:12.341,449.827
196,5 Jun 2017 02:36:22.226,5 Jun 2017 02:45:58.886,576.660
197,7 Jun 2017 03:11:56.561,7 Jun 2017 03:16:53.617,297.056
198,8 Jun 2017 02:37:53.021,8 Jun 2017 02:45:28.657,455.636
199,11 Jun 2017 02:39:17.086,11 Jun 2017 02:44:35.437,318.351
200,14 Jun 2017 02:40:30.626,14 Jun 2017 02:42:51.032,140.406
201,14 Jun 2017 12:11:17.108,14 Jun 2017 12:16:29.021,311.913
202,17 Jun 2017 12:10:02.207,17 Jun 2017 12:17:39.769,457.563
203,18 Jun 2017 11:39:49.699,18 Jun 2017 11:41:32.402,102.703
204,20 Jun 2017 12:09:20.124,20 Jun 2017 12:18:23.106,542.983
205,21 Jun 2017 11:37:30.044,21 Jun 2017 11:43:44.359,374.315
206,23 Jun 2017 12:08:57.377,23 Jun 2017 12:18:52.300,594.923
207,24 Jun 2017 11:36:29.765,24 Jun 2017 11:44:42.542,492.777
208,25 Jun 2017 11:05:22.611,25 Jun 2017 11:09:26.658,244.047
209,26 Jun 2017 12:08:49.637,26 Jun 2017 12:19:11.547,621.910
210,27 Jun 2017 11:35:55.354,27 Jun 2017 11:45:20.177,564.823
211,28 Jun 2017 11:03:49.911,28 Jun 2017 11:10:53.788,423.876
212,29 Jun 2017 12:08:55.279,29 Jun 2017 12:19:22.404,627.125
213,30 Jun 2017 11:35:38.266,30 Jun 2017 11:45:45.628,607.362
214,1 Jul 2017 11:03:00.546,1 Jul 2017 11:11:43.077,522.531
215,2 Jul 2017 10:31:26.538,2 Jul 2017 10:36:50.949,324.411
216,2 Jul 2017 12:09:14.152,2 Jul 2017 12:19:25.047,610.895
217,3 Jul 2017 11:35:35.402,3 Jul 2017 11:46:01.879,626.477
218,4 Jul 2017 11:02:32.872,4 Jul 2017 11:12:15.923,583.050
219,5 Jul 2017 10:30:14.671,5 Jul 2017 10:37:59.326,464.655
220,5 Jul 2017 12:09:47.439,5 Jul 2017 12:19:18.399,570.960
221,6 Jul 2017 09:59:47.162,6 Jul 2017 10:02:06.584,139.422
222,6 Jul 2017 11:35:45.723,6 Jul 2017 11:46:09.927,624.205
223,7 Jul 2017 11:02:21.082,7 Jul 2017 11:12:37.967,616.885
224,8 Jul 2017 10:29:34.127,8 Jul 2017 10:38:41.779,547.653
225,8 Jul 2017 12:10:38.416,8 Jul 2017 12:18:59.381,500.966
226,9 Jul 2017 09:57:41.303,9 Jul 2017 10:04:05.418,384.115
227,9 Jul 2017 11:36:09.534,9 Jul 2017 11:46:09.544,600.010
228,10 Jul 2017 11:02:24.622,10 Jul 2017 11:12:51.321,626.699
229,11 Jul 2017 10:29:27.483,11 Jul 2017 10:39:10.465,582.982
230,11 Jul 2017 12:11:55.898,11 Jul 2017 12:18:19.482,383.583
231,12 Jul 2017 09:56:43.254,12 Jul 2017 10:05:02.022,498.767
232,12 Jul 2017 11:36:59.021,12 Jul 2017 11:45:59.086,540.065
233,13 Jul 2017 09:25:30.695,13 Jul 2017 09:29:51.173,260.478
234,13 Jul 2017 11:03:59.113,13 Jul 2017 11:12:56.527,537.414
235,14 Jul 2017 10:30:57.982,14 Jul 2017 10:39:29.336,511.354
236,14 Jul 2017 12:14:31.818,14 Jul 2017 12:16:27.185,115.367
237,15 Jul 2017 09:57:55.695,15 Jul 2017 10:05:38.921,463.226
238,15 Jul 2017 11:38:25.487,15 Jul 2017 11:45:34.258,428.770
239,16 Jul 2017 09:24:52.317,16 Jul 2017 09:31:14.357,382.040
240,16 Jul 2017 11:05:22.037,16 Jul 2017 11:12:52.902,450.865
241,17 Jul 2017 10:32:17.560,17 Jul 2017 10:39:39.849,442.290
242,18 Jul 2017 09:59:12.110,18 Jul 2017 10:06:03.895,411.785
243,18 Jul 2017 11:39:41.681,18 Jul 2017 11:44:41.661,299.979
244,19 Jul 2017 09:26:05.742,19 Jul 2017 09:32:02.474,356.731
245,19 Jul 2017 11:06:35.253,19 Jul 2017 11:12:38.120,362.867
246,20 Jul 2017 08:52:58.503,20 Jul 2017 08:57:13.410,254.907
247,20 Jul 2017 10:33:27.953,20 Jul 2017 10:39:42.110,374.158
248,21 Jul 2017 10:00:19.833,21 Jul 2017 10:06:19.756,359.923
249,22 Jul 2017 09:27:10.928,22 Jul 2017 09:32:34.677,323.749
250,22 Jul 2017 11:07:40.261,22 Jul 2017 11:12:06.045,265.784
251,23 Jul 2017 08:54:01.282,23 Jul 2017 08:58:19.553,258.271
252,23 Jul 2017 10:34:30.567,23 Jul 2017 10:39:34.960,304.393
253,24 Jul 2017 08:20:50.926,24 Jul 2017 08:22:37.067,106.140
254,24 Jul 2017 10:01:20.165,24 Jul 2017 10:06:27.424,307.259
255,25 Jul 2017 09:28:09.096,25 Jul 2017 09:32:56.261,287.165
256,25 Jul 2017 11:08:38.276,25 Jul 2017 11:10:52.690,134.414
257,26 Jul 2017 08:54:57.392,26 Jul 2017 08:59:01.077,243.685
258,26 Jul 2017 10:35:26.531,26 Jul 2017 10:39:15.141,228.610
259,27 Jul 2017 08:21:45.075,27 Jul 2017 08:24:26.884,161.809
260,27 Jul 2017 10:02:14.175,27 Jul 2017 10:06:26.594,252.418
261,28 Jul 2017 09:29:01.248,28 Jul 2017 09:33:09.215,247.967
262,29 Jul 2017 08:55:47.762,29 Jul 2017 08:59:29.187,221.426
263,29 Jul 2017 10:36:16.778,29 Jul 2017 10:38:33.535,136.757
264,30 Jul 2017 08:22:33.751,30 Jul 2017 08:25:21.968,168.217
265,30 Jul 2017 10:03:02.734,30 Jul 2017 10:06:15.521,192.787
266,31 Jul 2017 07:49:19.239,31 Jul 2017 07:50:15.400,56.161
267,31 Jul 2017 09:29:48.187,31 Jul 2017 09:33:13.998,205.810
268,1 Aug 2017 08:56:33.157,1 Aug 2017 08:59:47.609,194.452
269,2 Aug 2017 08:23:17.669,2 Aug 2017 08:25:58.098,160.429
270,2 Aug 2017 10:03:46.544,2 Aug 2017 10:05:49.647,123.103
271,3 Aug 2017 07:50:01.733,3 Aug 2017 07:51:35.193,93.460
272,3 Aug 2017 09:30:30.580,3 Aug 2017 09:33:09.857,159.277
273,4 Aug 2017 08:57:14.196,4 Aug 2017 08:59:57.706,163.509
274,5 Aug 2017 08:23:57.399,5 Aug 2017 08:26:22.547,145.148
275,5 Aug 2017 10:04:26.182,5 Aug 2017 10:04:54.336,28.154
276,6 Aug 2017 07:50:40.214,6 Aug 2017 07:52:22.193,101.979
277,6 Aug 2017 09:31:08.972,6 Aug 2017 09:32:54.330,105.358
278,7 Aug 2017 07:17:22.644,7 Aug 2017 07:17:35.818,13.173
279,7 Aug 2017 08:57:51.378,7 Aug 2017 08:59:59.505,128.127
280,8 Aug 2017 08:24:33.422,8 Aug 2017 08:26:37.973,124.551
281,9 Aug 2017 07:51:15.112,9 Aug 2017 07:52:53.742,98.630
282,9 Aug 2017 09:31:43.790,9 Aug 2017 09:32:20.854,37.064
283,10 Aug 2017 07:17:56.466,10 Aug 2017 07:18:39.970,43.505
284,10 Aug 2017 08:58:25.122,10 Aug 2017 08:59:51.765,86.643
285,11 Aug 2017 08:25:06.113,11 Aug 2017 08:26:45.214,99.101
286,12 Aug 2017 07:51:46.793,12 Aug 2017 07:53:14.847,88.054
287,13 Aug 2017 07:18:27.151,13 Aug 2017 07:19:20.619,53.468
288,13 Aug 2017 08:58:55.736,13 Aug 2017 08:59:31.032,35.296
289,14 Aug 2017 08:25:35.780,14 Aug 2017 08:26:43.887,68.107
290,15 Aug 2017 07:52:15.520,15 Aug 2017 07:53:27.374,71.854
291,16 Aug 2017 07:18:54.971,16 Aug 2017 07:19:48.164,53.193
292,17 Aug 2017 06:45:34.139,17 Aug 2017 06:45:42.109,7.970
293,17 Aug 2017 08:26:02.646,17 Aug 2017 08:26:32.141,29.496
294,18 Aug 2017 07:52:41.513,18 Aug 2017 07:53:31.721,50.208
295,19 Aug 2017 07:19:20.111,19 Aug 2017 07:20:06.153,46.042
296,20 Aug 2017 06:45:58.438,20 Aug 2017 06:46:17.529,19.090
297,21 Aug 2017 07:53:04.923,21 Aug 2017 07:53:27.053,22.130
298,22 Aug 2017 07:19:42.702,22 Aug 2017 07:20:15.840,33.139
299,23 Aug 2017 06:46:20.218,23 Aug 2017 06:46:41.493,21.275
300,25 Aug 2017 07:20:02.819,25 Aug 2017 07:20:17.205,14.385
301,26 Aug 2017 06:46:39.534,26 Aug 2017 06:46:56.523,16.989
302,29 Aug 2017 06:46:56.380,29 Aug 2017 06:47:03.382,7.002
303,30 Aug 2017 06:13:32.022,30 Aug 2017 06:13:33.837,1.815
304,2 Sep 2017 06:13:45.462,2 Sep 2017 06:13:46.009,0.548
305,13 Sep 2017 05:07:09.342,13 Sep 2017 05:07:15.859,6.517
306,16 Sep 2017 05:07:05.514,16 Sep 2017 05:07:22.419,16.905
307,17 Sep 2017 04:33:33.627,17 Sep 2017 04:33:53.731,20.104
308,18 Sep 2017 04:00:00.970,18 Sep 2017 04:00:01.476,0.506
309,19 Sep 2017 05:06:55.013,19 Sep 2017 05:07:20.299,25.286
310,20 Sep 2017 04:33:20.440,20 Sep 2017 04:34:05.635,45.194
311,21 Sep 2017 03:59:44.764,21 Sep 2017 04:00:28.152,43.388
312,22 Sep 2017 03:26:07.805,22 Sep 2017 03:26:24.486,16.681
313,22 Sep 2017 05:06:35.112,22 Sep 2017 05:07:07.411,32.299
314,23 Sep 2017 04:32:56.571,23 Sep 2017 04:34:09.332,72.761
315,24 Sep 2017 03:59:16.278,24 Sep 2017 04:00:45.491,89.213
316,25 Sep 2017 03:25:33.903,25 Sep 2017 03:26:58.756,84.854
317,25 Sep 2017 05:06:00.778,25 Sep 2017 05:06:38.281,37.503
318,26 Sep 2017 02:51:48.985,26 Sep 2017 02:52:40.630,51.645
319,26 Sep 2017 04:32:15.664,26 Sep 2017 04:34:03.838,108.175
320,27 Sep 2017 03:58:27.344,27 Sep 2017 04:00:54.607,147.264
321,28 Sep 2017 03:24:34.903,28 Sep 2017 03:27:21.990,167.087
322,28 Sep 2017 05:05:00.970,28 Sep 2017 05:05:33.307,32.338
323,29 Sep 2017 02:50:36.974,29 Sep 2017 02:53:24.871,167.897
324,29 Sep 2017 04:31:02.574,29 Sep 2017 04:33:46.234,163.660
325,30 Sep 2017 02:16:31.254,30 Sep 2017 02:18:46.062,134.807
326,30 Sep 2017 03:56:56.171,30 Sep 2017 04:00:55.332,239.161
327,1 Oct 2017 03:22:37.200,1 Oct 2017 03:27:36.446,299.246
328,2 Oct 2017 02:47:54.393,2 Oct 2017 02:53:54.902,360.509
329,2 Oct 2017 04:28:15.423,2 Oct 2017 04:33:08.515,293.092
330,3 Oct 2017 02:11:42.399,3 Oct 2017 02:19:45.245,482.847
331,3 Oct 2017 03:51:33.606,3 Oct 2017 04:00:46.125,552.519
332,4 Oct 2017 01:40:27.276,4 Oct 2017 01:44:28.964,241.688
333,4 Oct 2017 03:17:24.394,4 Oct 2017 03:27:42.756,618.362
334,5 Oct 2017 02:43:53.643,5 Oct 2017 02:54:14.951,621.308
335,5 Oct 2017 04:29:02.842,5 Oct 2017 04:31:27.678,144.836
336,5 Oct 2017 13:19:11.607,5 Oct 2017 13:25:18.321,366.714
337,6 Oct 2017 02:10:59.718,6 Oct 2017 02:20:23.747,564.029
338,6 Oct 2017 03:52:31.303,6 Oct 2017 04:00:22.915,471.612
339,7 Oct 2017 01:38:54.732,7 Oct 2017 01:45:57.425,422.694
340,7 Oct 2017 03:17:53.035,7 Oct 2017 03:27:40.317,587.282
341,8 Oct 2017 02:43:59.993,8 Oct 2017 02:54:26.598,626.605
342,8 Oct 2017 13:18:28.993,8 Oct 2017 13:26:40.560,491.567
343,9 Oct 2017 02:10:43.298,9 Oct 2017 02:20:50.023,606.725
344,9 Oct 2017 03:54:01.532,9 Oct 2017 03:59:33.273,331.741
345,9 Oct 2017 12:46:56.601,9 Oct 2017 12:50:38.526,221.925
346,10 Oct 2017 01:38:05.932,10 Oct 2017 01:46:47.634,521.702
347,10 Oct 2017 03:18:37.876,10 Oct 2017 03:27:26.924,529.047
348,11 Oct 2017 01:06:32.461,11 Oct 2017 01:11:55.477,323.016
349,11 Oct 2017 02:44:19.590,11 Oct 2017 02:54:30.024,610.434
350,11 Oct 2017 13:18:09.034,11 Oct 2017 13:27:34.580,565.545
351,12 Oct 2017 02:10:41.139,12 Oct 2017 02:21:07.072,625.933
352,12 Oct 2017 12:45:39.747,12 Oct 2017 12:52:38.909,419.162
353,13 Oct 2017 01:37:38.913,13 Oct 2017 01:47:21.324,582.411
354,13 Oct 2017 03:19:44.970,13 Oct 2017 03:26:56.786,431.816

"Access","Start Time (UTCG)","Stop Time (UTCG)","Duration (sec)"
1,9 Nov 2016 13:43:17.139,9 Nov 2016 13:46:39.278,202.139
2,12 Nov 2016 13:41:42.307,12 Nov 2016 13:48:31.747,409.440
3,15 Nov 2016 13:40:55.236,15 Nov 2016 13:49:30.358,515.122
4,16 Nov 2016 13:08:56.224,16 Nov 2016 13:13:48.816,292.592
5,18 Nov 2016 03:06:48.712,18 Nov 2016 03:08:39.603,110.891
6,18 Nov 2016 13:40:26.253,18 Nov 2016 13:50:05.146,578.894
7,19 Nov 2016 02:33:00.166,19 Nov 2016 02:36:33.029,212.863
8,19 Nov 2016 13:07:44.899,19 Nov 2016 13:15:15.019,450.121
9,20 Nov 2016 01:59:47.884,20 Nov 2016 02:04:33.324,285.440
10,20 Nov 2016 03:42:19.622,20 Nov 2016 03:45:07.931,168.309
11,21 Nov 2016 01:27:17.824,21 Nov 2016 01:32:42.427,324.603
12,21 Nov 2016 03:07:12.897,21 Nov 2016 03:13:17.789,364.892
13,21 Nov 2016 13:40:08.528,21 Nov 2016 13:50:23.223,614.696
14,22 Nov 2016 00:56:12.337,22 Nov 2016 01:00:00.782,228.445
15,22 Nov 2016 02:33:00.866,22 Nov 2016 02:41:41.377,520.511
16,22 Nov 2016 13:07:04.717,22 Nov 2016 13:16:04.115,539.398
17,23 Nov 2016 01:59:26.874,23 Nov 2016 02:09:47.976,621.102
18,23 Nov 2016 03:44:20.519,23 Nov 2016 03:47:13.806,173.287
19,23 Nov 2016 12:34:47.458,23 Nov 2016 12:40:43.631,356.173
20,23 Nov 2016 14:13:42.263,23 Nov 2016 14:14:44.506,62.243
21,24 Nov 2016 01:26:30.013,24 Nov 2016 01:35:51.361,561.347
22,24 Nov 2016 03:07:55.456,24 Nov 2016 03:15:54.171,478.716
23,24 Nov 2016 13:39:59.489,24 Nov 2016 13:50:27.344,627.856
24,25 Nov 2016 00:54:23.251,25 Nov 2016 01:01:18.521,415.269
25,25 Nov 2016 02:33:14.764,25 Nov 2016 02:43:05.589,590.826
26,25 Nov 2016 13:06:39.535,25 Nov 2016 13:16:32.580,593.045
27,26 Nov 2016 01:59:18.762,26 Nov 2016 02:09:46.407,627.646
28,26 Nov 2016 12:33:49.626,26 Nov 2016 12:41:53.626,484.000
29,26 Nov 2016 14:13:55.802,26 Nov 2016 14:17:33.338,217.536
30,27 Nov 2016 01:25:59.191,27 Nov 2016 01:36:04.317,605.126
31,27 Nov 2016 03:09:07.637,27 Nov 2016 03:14:54.385,346.748
32,27 Nov 2016 12:02:22.366,27 Nov 2016 12:05:36.590,194.224
33,27 Nov 2016 13:39:58.258,27 Nov 2016 13:50:18.470,620.213
34,28 Nov 2016 00:53:19.548,28 Nov 2016 01:01:55.865,516.317
35,28 Nov 2016 02:33:43.999,28 Nov 2016 02:42:39.613,535.614
36,28 Nov 2016 13:06:24.486,28 Nov 2016 13:16:45.526,621.039
37,29 Nov 2016 00:21:46.959,29 Nov 2016 00:26:54.566,307.607
38,29 Nov 2016 01:59:23.323,29 Nov 2016 02:09:36.665,613.342
39,29 Nov 2016 12:33:14.877,29 Nov 2016 12:42:34.694,559.818
40,29 Nov 2016 14:14:21.612,29 Nov 2016 14:20:18.156,356.543
41,30 Nov 2016 01:25:42.184,30 Nov 2016 01:36:07.970,625.786
42,30 Nov 2016 12:00:44.353,30 Nov 2016 12:07:30.200,405.847
43,30 Nov 2016 13:40:05.154,30 Nov 2016 13:49:56.306,591.152
44,1 Dec 2016 00:52:37.547,1 Dec 2016 01:02:16.244,578.697
45,1 Dec 2016 02:34:33.935,1 Dec 2016 02:41:57.884,443.949
46,1 Dec 2016 13:06:17.689,1 Dec 2016 13:16:44.996,627.307
47,2 Dec 2016 00:20:18.508,2 Dec 2016 00:27:52.672,454.163
48,2 Dec 2016 01:59:41.569,2 Dec 2016 02:09:17.829,576.260
49,2 Dec 2016 12:32:52.989,2 Dec 2016 12:42:57.364,604.375
50,2 Dec 2016 14:15:08.824,2 Dec 2016 14:21:08.800,359.976
51,3 Dec 2016 01:25:37.870,3 Dec 2016 01:36:03.410,625.540
52,3 Dec 2016 11:59:55.756,3 Dec 2016 12:08:28.285,512.530
53,3 Dec 2016 13:40:21.842,3 Dec 2016 13:49:19.124,537.281
54,4 Dec 2016 00:52:11.151,4 Dec 2016 01:02:25.596,614.445
55,4 Dec 2016 02:36:02.424,4 Dec 2016 02:40:42.886,280.462
56,4 Dec 2016 11:27:58.145,4 Dec 2016 11:32:44.462,286.317
57,4 Dec 2016 13:06:18.671,4 Dec 2016 13:16:31.514,612.843
58,5 Dec 2016 00:19:22.723,5 Dec 2016 00:28:22.993,540.270
59,5 Dec 2016 02:00:16.372,5 Dec 2016 02:08:47.195,510.823
60,5 Dec 2016 12:32:40.403,5 Dec 2016 12:43:05.415,625.013
61,6 Dec 2016 01:25:46.388,6 Dec 2016 01:35:50.515,604.126
62,6 Dec 2016 11:59:25.462,6 Dec 2016 12:09:02.341,576.879
63,6 Dec 2016 13:40:52.725,6 Dec 2016 13:48:22.373,449.648
64,7 Dec 2016 00:51:58.025,7 Dec 2016 01:02:26.157,628.132
65,7 Dec 2016 11:26:44.505,7 Dec 2016 11:34:10.934,446.430
66,7 Dec 2016 13:06:28.131,7 Dec 2016 13:16:04.377,576.247
67,8 Dec 2016 00:18:45.917,8 Dec 2016 00:28:39.010,593.093
68,8 Dec 2016 02:01:15.201,8 Dec 2016 02:07:57.577,402.377
69,8 Dec 2016 12:33:04.593,8 Dec 2016 12:43:00.304,595.711
70,9 Dec 2016 01:26:09.255,9 Dec 2016 01:35:27.906,558.652
71,9 Dec 2016 12:01:12.895,9 Dec 2016 12:09:19.628,486.733
72,9 Dec 2016 13:41:52.009,9 Dec 2016 13:46:51.645,299.636
73,10 Dec 2016 00:51:57.497,10 Dec 2016 01:02:18.584,621.087
74,10 Dec 2016 11:29:12.574,10 Dec 2016 11:34:59.497,346.923
75,10 Dec 2016 13:09:46.560,10 Dec 2016 13:15:21.188,334.628
76,11 Dec 2016 00:18:23.688,11 Dec 2016 00:28:44.979,621.291
77,11 Dec 2016 02:03:11.691,11 Dec 2016 02:06:15.714,184.023
78,11 Dec 2016 10:57:05.415,11 Dec 2016 10:59:37.105,151.690
79,11 Dec 2016 12:37:38.956,11 Dec 2016 12:42:42.166,303.210
80,12 Dec 2016 01:26:50.326,12 Dec 2016 01:34:51.931,481.605
81,12 Dec 2016 12:05:25.574,12 Dec 2016 12:09:22.956,237.382
82,13 Dec 2016 00:52:10.130,13 Dec 2016 01:02:02.388,592.258
83,13 Dec 2016 11:33:07.069,13 Dec 2016 11:35:27.280,140.211
84,13 Dec 2016 13:13:39.851,13 Dec 2016 13:14:15.611,35.760
85,14 Dec 2016 00:18:14.362,14 Dec 2016 00:28:42.507,628.144
86,14 Dec 2016 11:00:43.925,14 Dec 2016 11:00:47.094,3.168
87,14 Dec 2016 12:41:16.398,14 Dec 2016 12:42:09.834,53.436
88,15 Dec 2016 01:28:00.514,15 Dec 2016 01:33:51.980,351.466
89,15 Dec 2016 12:08:48.729,15 Dec 2016 12:09:13.308,24.579
90,16 Dec 2016 00:52:37.994,16 Dec 2016 01:01:35.636,537.643
91,17 Dec 2016 00:18:17.668,17 Dec 2016 00:28:31.875,614.207
92,19 Dec 2016 00:53:26.316,19 Dec 2016 01:00:53.335,447.020
93,20 Dec 2016 00:19:13.583,20 Dec 2016 00:28:12.187,538.604
94,22 Dec 2016 00:54:52.246,22 Dec 2016 00:59:38.680,286.434
95,23 Dec 2016 00:20:43.448,23 Dec 2016 00:27:40.815,417.367
96,26 Dec 2016 00:22:27.787,26 Dec 2016 00:26:50.763,262.977
97,29 Dec 2016 00:24:25.503,29 Dec 2016 00:25:10.773,45.270
98,6 Mar 2017 03:32:47.533,6 Mar 2017 03:32:57.294,9.761
99,7 Mar 2017 04:39:40.703,7 Mar 2017 04:40:27.289,46.586
100,8 Mar 2017 04:05:49.655,8 Mar 2017 04:07:30.216,100.561
101,9 Mar 2017 03:32:21.484,9 Mar 2017 03:34:36.414,134.931
102,9 Mar 2017 05:14:47.226,9 Mar 2017 05:15:06.995,19.769
103,10 Mar 2017 02:59:20.035,10 Mar 2017 03:01:46.466,146.432
104,10 Mar 2017 04:39:53.105,10 Mar 2017 04:42:17.348,144.242
105,11 Mar 2017 02:27:12.965,11 Mar 2017 02:29:01.110,108.145
106,11 Mar 2017 04:05:46.017,11 Mar 2017 04:09:32.362,226.346
107,12 Mar 2017 03:32:04.389,12 Mar 2017 03:36:53.067,288.678
108,13 Mar 2017 02:58:45.911,13 Mar 2017 03:04:20.963,335.053
109,13 Mar 2017 04:40:20.383,13 Mar 2017 04:44:53.284,272.901
110,14 Mar 2017 02:26:00.027,14 Mar 2017 02:31:58.356,358.330
111,14 Mar 2017 04:05:50.931,14 Mar 2017 04:12:31.485,400.554
112,15 Mar 2017 01:55:27.749,15 Mar 2017 01:56:21.344,53.595
113,15 Mar 2017 03:31:55.099,15 Mar 2017 03:40:23.617,508.517
114,16 Mar 2017 02:58:22.556,16 Mar 2017 03:08:38.856,616.300
115,16 Mar 2017 04:41:19.092,16 Mar 2017 04:45:56.445,277.352
116,17 Mar 2017 02:25:15.141,17 Mar 2017 02:34:19.837,544.696
117,17 Mar 2017 04:06:06.917,17 Mar 2017 04:14:31.936,505.019
118,18 Mar 2017 01:52:52.251,18 Mar 2017 01:59:01.414,369.163
119,18 Mar 2017 03:31:53.664,18 Mar 2017 03:41:54.111,600.447
120,19 Mar 2017 02:58:07.635,19 Mar 2017 03:08:35.364,627.729
121,20 Mar 2017 02:24:44.453,20 Mar 2017 02:34:40.162,595.709
122,20 Mar 2017 04:06:40.722,20 Mar 2017 04:13:18.311,397.588
123,21 Mar 2017 01:51:50.727,21 Mar 2017 02:00:01.364,490.636
124,21 Mar 2017 03:32:01.318,21 Mar 2017 03:41:14.910,553.591
125,22 Mar 2017 02:58:00.409,22 Mar 2017 03:08:18.971,618.562
126,23 Mar 2017 02:24:23.550,23 Mar 2017 02:34:45.399,621.849
127,23 Mar 2017 04:08:02.808,23 Mar 2017 04:11:10.781,187.973
128,24 Mar 2017 01:51:10.706,24 Mar 2017 02:00:34.062,563.356
129,24 Mar 2017 03:32:21.459,24 Mar 2017 03:40:17.958,476.499
130,25 Mar 2017 02:58:01.258,25 Mar 2017 03:07:49.399,588.141
131,26 Mar 2017 02:24:10.703,26 Mar 2017 02:34:37.406,626.702
132,27 Mar 2017 01:50:43.020,27 Mar 2017 02:00:48.973,605.954
133,27 Mar 2017 03:33:03.865,27 Mar 2017 03:38:53.288,349.422
134,27 Mar 2017 13:07:42.860,27 Mar 2017 13:09:37.960,115.100
135,28 Mar 2017 02:58:11.947,28 Mar 2017 03:07:04.814,532.866
136,29 Mar 2017 02:24:05.549,29 Mar 2017 02:34:16.628,611.078
137,30 Mar 2017 01:50:24.381,30 Mar 2017 02:00:49.589,625.207
138,30 Mar 2017 13:05:09.634,30 Mar 2017 13:11:24.045,374.411
139,31 Mar 2017 02:58:37.062,31 Mar 2017 03:06:00.487,443.425
140,1 Apr 2017 02:24:08.838,1 Apr 2017 02:33:42.290,573.452
141,2 Apr 2017 01:50:13.566,2 Apr 2017 02:00:37.254,623.688
142,2 Apr 2017 13:03:50.189,2 Apr 2017 13:12:01.339,491.150
143,3 Apr 2017 02:59:31.728,3 Apr 2017 03:04:21.084,289.356
144,3 Apr 2017 12:32:39.885,3 Apr 2017 12:36:35.834,235.949
145,4 Apr 2017 02:24:22.952,4 Apr 2017 02:32:51.919,508.967
146,5 Apr 2017 01:50:44.932,5 Apr 2017 02:00:12.037,567.104
147,5 Apr 2017 13:02:55.664,5 Apr 2017 13:12:18.426,562.762
148,6 Apr 2017 12:30:45.935,6 Apr 2017 12:37:43.542,417.607
149,7 Apr 2017 02:24:54.214,7 Apr 2017 02:31:39.032,404.819
150,8 Apr 2017 01:53:04.669,8 Apr 2017 01:59:32.736,388.068
151,8 Apr 2017 13:02:17.764,8 Apr 2017 13:09:42.941,445.177
152,9 Apr 2017 12:29:35.537,9 Apr 2017 12:38:12.584,517.047
153,10 Apr 2017 02:26:09.265,10 Apr 2017 02:29:36.750,207.485
154,10 Apr 2017 11:58:00.318,10 Apr 2017 12:03:08.985,308.667
155,11 Apr 2017 01:55:24.520,11 Apr 2017 01:58:36.048,191.528
156,11 Apr 2017 13:01:53.443,11 Apr 2017 13:05:46.238,232.795
157,12 Apr 2017 12:28:46.392,12 Apr 2017 12:38:25.016,578.624
158,13 Apr 2017 11:56:25.108,13 Apr 2017 12:03:58.799,453.691
159,14 Apr 2017 11:26:24.906,14 Apr 2017 11:27:26.191,61.285
160,14 Apr 2017 13:01:41.598,14 Apr 2017 13:01:54.468,12.870
161,15 Apr 2017 12:28:12.592,15 Apr 2017 12:38:26.587,613.995
162,16 Apr 2017 11:55:22.050,16 Apr 2017 12:04:21.253,539.203
163,17 Apr 2017 11:23:29.038,17 Apr 2017 11:29:32.486,363.448
164,18 Apr 2017 12:27:51.868,18 Apr 2017 12:38:19.480,627.612
165,19 Apr 2017 11:54:37.728,19 Apr 2017 12:04:29.556,591.829
166,20 Apr 2017 11:22:06.305,20 Apr 2017 11:30:10.623,484.318
167,21 Apr 2017 10:51:03.279,21 Apr 2017 10:54:37.778,214.499
168,21 Apr 2017 12:27:43.536,21 Apr 2017 12:38:04.356,620.820
169,22 Apr 2017 11:54:07.792,22 Apr 2017 12:04:27.911,620.119
170,23 Apr 2017 11:21:09.466,23 Apr 2017 11:30:27.583,558.117
171,24 Apr 2017 10:49:02.332,24 Apr 2017 10:55:50.006,407.674
172,24 Apr 2017 12:27:48.119,24 Apr 2017 12:37:40.752,592.632
173,25 Apr 2017 11:53:50.574,25 Apr 2017 12:04:17.934,627.360
174,26 Apr 2017 11:20:29.540,26 Apr 2017 11:30:32.149,602.610
175,27 Apr 2017 10:47:48.985,27 Apr 2017 10:56:19.523,510.538
176,27 Apr 2017 12:28:07.609,27 Apr 2017 12:37:06.819,539.210
177,28 Apr 2017 10:16:18.566,28 Apr 2017 10:21:11.051,292.485
178,28 Apr 2017 11:53:45.765,28 Apr 2017 12:03:59.914,614.149
179,29 Apr 2017 11:20:03.289,29 Apr 2017 11:30:27.460,624.170
180,30 Apr 2017 10:46:57.562,30 Apr 2017 10:56:31.757,574.195
181,30 Apr 2017 12:28:46.969,30 Apr 2017 12:36:17.829,450.859
182,1 May 2017 10:14:38.558,1 May 2017 10:22:03.165,444.607
183,1 May 2017 11:53:54.294,1 May 2017 12:03:33.030,578.736
184,2 May 2017 11:19:49.515,2 May 2017 11:30:14.648,625.133
185,3 May 2017 10:46:36.629,3 May 2017 10:56:32.891,596.263
186,3 May 2017 12:30:01.976,3 May 2017 12:34:58.320,296.345
187,4 May 2017 10:13:32.754,4 May 2017 10:22:25.870,533.116
188,4 May 2017 11:54:18.792,4 May 2017 12:02:54.812,516.020
189,5 May 2017 09:41:43.408,5 May 2017 09:47:33.363,349.955
190,5 May 2017 11:20:54.937,5 May 2017 11:29:53.676,538.739
191,6 May 2017 10:47:45.883,6 May 2017 10:56:25.271,519.388
192,7 May 2017 10:14:34.926,7 May 2017 10:22:33.926,479.000
193,7 May 2017 11:55:06.008,7 May 2017 12:01:58.763,412.755
194,8 May 2017 09:41:22.261,8 May 2017 09:48:12.858,410.597
195,8 May 2017 11:21:51.296,8 May 2017 11:29:23.321,452.025
196,9 May 2017 09:09:23.431,9 May 2017 09:12:30.315,186.884
197,9 May 2017 10:48:36.982,9 May 2017 10:56:09.650,452.668
198,10 May 2017 10:15:21.266,10 May 2017 10:22:31.863,430.597
199,10 May 2017 11:56:43.160,10 May 2017 12:00:18.037,214.877
200,11 May 2017 09:42:04.259,11 May 2017 09:48:29.922,385.663
201,11 May 2017 11:22:33.001,11 May 2017 11:28:40.281,367.280
202,12 May 2017 09:08:46.078,12 May 2017 09:13:49.282,303.204
203,12 May 2017 10:49:14.740,12 May 2017 10:55:45.644,390.904
204,13 May 2017 10:15:55.405,13 May 2017 10:22:21.415,386.010
205,14 May 2017 09:42:35.058,14 May 2017 09:48:34.225,359.167
206,14 May 2017 11:23:03.565,14 May 2017 11:27:35.363,271.798
207,15 May 2017 09:09:13.787,15 May 2017 09:14:19.652,305.865
208,15 May 2017 10:49:42.230,15 May 2017 10:55:11.544,329.314
209,16 May 2017 08:35:51.639,16 May 2017 08:39:05.388,193.749
210,16 May 2017 10:16:20.033,16 May 2017 10:22:02.965,342.932
211,17 May 2017 09:42:57.020,17 May 2017 09:48:29.143,332.122
212,17 May 2017 11:24:08.002,17 May 2017 11:24:52.703,44.701
213,18 May 2017 09:09:33.252,18 May 2017 09:14:31.898,298.646
214,18 May 2017 10:50:01.525,18 May 2017 10:54:22.958,261.434
215,19 May 2017 08:36:08.763,19 May 2017 08:40:00.696,231.932
216,19 May 2017 10:16:36.992,19 May 2017 10:21:35.796,298.803
217,20 May 2017 09:43:11.784,20 May 2017 09:48:15.914,304.130
218,21 May 2017 09:09:45.943,21 May 2017 09:14:32.766,286.823
219,21 May 2017 10:50:14.070,21 May 2017 10:53:06.099,172.030
220,22 May 2017 08:36:19.490,22 May 2017 08:40:23.940,244.451
221,22 May 2017 10:16:47.581,22 May 2017 10:20:57.604,250.022
222,23 May 2017 08:02:52.463,23 May 2017 08:05:27.226,154.763
223,23 May 2017 09:43:20.517,23 May 2017 09:47:54.605,274.088
224,24 May 2017 09:09:52.904,24 May 2017 09:14:24.792,271.888
225,25 May 2017 08:36:24.763,25 May 2017 08:40:31.946,247.183
226,25 May 2017 10:16:52.732,25 May 2017 10:20:02.430,189.699
227,26 May 2017 08:02:56.115,26 May 2017 08:06:08.590,192.475
228,26 May 2017 09:43:24.051,26 May 2017 09:47:24.095,240.044
229,27 May 2017 07:29:26.986,27 May 2017 07:30:13.354,46.368
230,27 May 2017 09:09:54.890,27 May 2017 09:14:08.817,253.928
231,28 May 2017 08:36:25.257,28 May 2017 08:40:29.625,244.368
232,28 May 2017 10:16:53.119,28 May 2017 10:18:27.451,94.332
233,29 May 2017 08:02:55.175,29 May 2017 08:06:25.995,210.820
234,29 May 2017 09:43:23.008,29 May 2017 09:46:41.333,198.324
235,30 May 2017 07:29:24.648,30 May 2017 07:31:42.023,137.374
236,30 May 2017 09:09:52.454,30 May 2017 09:13:44.567,232.113
237,31 May 2017 08:36:21.477,31 May 2017 08:40:18.855,237.378
238,1 Jun 2017 08:02:50.081,1 Jun 2017 08:06:30.206,220.124
239,1 Jun 2017 09:43:17.821,1 Jun 2017 09:45:38.014,140.193
240,2 Jun 2017 07:29:18.280,2 Jun 2017 07:32:13.578,175.298
241,2 Jun 2017 09:09:45.994,2 Jun 2017 09:13:10.469,204.476
242,3 Jun 2017 06:55:46.080,3 Jun 2017 06:56:52.677,66.597
243,3 Jun 2017 08:36:13.769,3 Jun 2017 08:40:00.125,226.356
244,4 Jun 2017 08:02:41.153,4 Jun 2017 08:06:24.869,223.716
245,4 Jun 2017 09:43:08.804,4 Jun 2017 09:43:25.177,16.373
246,5 Jun 2017 07:29:08.150,5 Jun 2017 07:32:26.010,197.860
247,5 Jun 2017 09:09:35.777,5 Jun 2017 09:12:22.490,166.713
248,6 Jun 2017 06:55:34.767,6 Jun 2017 06:57:52.033,137.265
249,6 Jun 2017 08:36:02.370,6 Jun 2017 08:39:32.813,210.443
250,7 Jun 2017 08:02:28.586,7 Jun 2017 08:06:11.361,222.776
251,8 Jun 2017 07:28:54.426,8 Jun 2017 07:32:26.748,212.322
252,8 Jun 2017 09:09:21.969,8 Jun 2017 09:11:08.474,106.505
253,9 Jun 2017 06:55:19.895,9 Jun 2017 06:58:16.042,176.148
254,9 Jun 2017 08:35:47.411,9 Jun 2017 08:38:54.804,187.393
255,10 Jun 2017 06:21:44.985,10 Jun 2017 06:23:14.722,89.737
256,10 Jun 2017 08:02:12.481,10 Jun 2017 08:05:49.837,217.355
257,11 Jun 2017 07:28:37.182,11 Jun 2017 07:32:18.536,221.354
258,12 Jun 2017 06:55:01.496,12 Jun 2017 06:58:24.133,202.637
259,12 Jun 2017 08:35:28.931,12 Jun 2017 08:38:00.688,151.757
260,13 Jun 2017 06:21:25.437,13 Jun 2017 06:23:58.358,152.921
261,13 Jun 2017 08:01:52.848,13 Jun 2017 08:05:19.291,206.443
262,14 Jun 2017 07:28:16.383,14 Jun 2017 07:32:02.311,225.929
263,15 Jun 2017 06:54:39.530,15 Jun 2017 06:58:21.648,222.118
264,15 Jun 2017 08:35:06.879,15 Jun 2017 08:36:31.206,84.327
265,16 Jun 2017 06:21:02.283,16 Jun 2017 06:24:16.242,193.959
266,16 Jun 2017 08:01:29.607,16 Jun 2017 08:04:36.935,187.328
267,17 Jun 2017 05:47:24.636,17 Jun 2017 05:49:28.693,124.057
268,17 Jun 2017 07:27:51.934,17 Jun 2017 07:31:37.907,225.973
269,18 Jun 2017 06:54:13.855,18 Jun 2017 06:58:10.638,236.783
270,19 Jun 2017 06:20:35.351,19 Jun 2017 06:24:20.447,225.096
271,19 Jun 2017 08:01:02.582,19 Jun 2017 08:03:35.333,152.751
272,20 Jun 2017 05:46:56.419,20 Jun 2017 05:50:01.646,185.227
273,20 Jun 2017 07:27:23.623,20 Jun 2017 07:31:03.900,220.277
274,21 Jun 2017 05:13:17.048,21 Jun 2017 05:14:33.072,76.023
275,21 Jun 2017 06:53:44.223,21 Jun 2017 06:57:51.691,247.468
276,22 Jun 2017 06:20:04.361,22 Jun 2017 06:24:14.922,250.561
277,22 Jun 2017 08:00:31.491,22 Jun 2017 08:01:38.207,66.716
278,23 Jun 2017 05:46:24.028,23 Jun 2017 05:50:14.364,230.336
279,23 Jun 2017 07:26:51.130,23 Jun 2017 07:30:16.608,205.478
280,24 Jun 2017 05:12:43.205,24 Jun 2017 05:15:37.391,174.187
281,24 Jun 2017 06:53:10.272,24 Jun 2017 06:57:24.288,254.016
282,25 Jun 2017 06:19:28.910,25 Jun 2017 06:24:01.176,272.266
283,26 Jun 2017 05:45:47.011,26 Jun 2017 05:50:15.022,268.012
284,26 Jun 2017 07:26:13.994,26 Jun 2017 07:29:05.374,171.380
285,27 Jun 2017 05:12:04.554,27 Jun 2017 05:16:02.300,237.746
286,27 Jun 2017 06:52:31.500,27 Jun 2017 06:56:46.503,255.003
287,28 Jun 2017 04:38:21.522,28 Jun 2017 04:40:55.807,154.285
288,28 Jun 2017 06:18:48.429,28 Jun 2017 06:23:39.450,291.021
289,29 Jun 2017 05:45:04.743,29 Jun 2017 05:50:06.580,301.836
290,30 Jun 2017 05:11:20.407,30 Jun 2017 05:16:10.517,290.111
291,30 Jun 2017 06:51:47.213,30 Jun 2017 06:55:53.446,246.233
292,1 Jul 2017 04:37:35.394,1 Jul 2017 04:41:42.122,246.728
293,1 Jul 2017 06:18:02.156,1 Jul 2017 06:23:08.878,306.723
294,2 Jul 2017 05:44:16.373,2 Jul 2017 05:49:50.114,333.742
295,3 Jul 2017 05:10:29.823,3 Jul 2017 05:16:07.878,338.055
296,3 Jul 2017 06:50:56.463,3 Jul 2017 06:54:28.808,212.345
297,4 Jul 2017 04:36:42.450,4 Jul 2017 04:42:00.569,318.119
298,4 Jul 2017 06:17:09.034,4 Jul 2017 06:22:26.916,317.882
299,5 Jul 2017 04:02:54.209,5 Jul 2017 04:07:08.998,254.789
300,5 Jul 2017 05:43:20.730,5 Jul 2017 05:49:25.536,364.806
301,6 Jul 2017 05:09:31.482,6 Jul 2017 05:15:56.615,385.133
302,7 Jul 2017 04:35:41.229,7 Jul 2017 04:42:04.776,383.546
303,7 Jul 2017 06:16:07.592,7 Jul 2017 06:21:26.894,319.302
304,8 Jul 2017 04:01:49.883,8 Jul 2017 04:07:43.595,353.712
305,8 Jul 2017 05:42:16.168,8 Jul 2017 05:48:51.570,395.402
306,9 Jul 2017 03:28:42.134,9 Jul 2017 03:32:05.402,203.268
307,9 Jul 2017 05:08:23.557,9 Jul 2017 05:15:37.411,433.854
308,10 Jul 2017 04:34:29.657,10 Jul 2017 04:41:59.034,449.378
309,10 Jul 2017 06:16:13.851,10 Jul 2017 06:19:40.539,206.688
310,11 Jul 2017 04:00:34.348,11 Jul 2017 04:07:56.637,442.288
311,11 Jul 2017 05:41:00.339,11 Jul 2017 05:48:04.879,424.540
312,12 Jul 2017 03:26:37.497,12 Jul 2017 03:33:16.293,398.796
313,12 Jul 2017 05:07:03.375,12 Jul 2017 05:15:09.863,486.488
314,13 Jul 2017 04:33:04.703,13 Jul 2017 04:41:45.000,520.298
315,14 Jul 2017 03:59:04.133,14 Jul 2017 04:07:57.192,533.059
316,14 Jul 2017 05:40:51.138,14 Jul 2017 05:46:56.080,364.942
317,15 Jul 2017 03:25:14.554,15 Jul 2017 03:33:42.253,507.699
318,15 Jul 2017 05:05:28.935,15 Jul 2017 05:14:32.222,543.286
319,16 Jul 2017 02:53:45.898,16 Jul 2017 02:58:29.545,283.647
320,16 Jul 2017 04:31:21.638,16 Jul 2017 04:41:23.024,601.387
321,17 Jul 2017 03:57:23.936,17 Jul 2017 04:07:48.490,624.554
322,18 Jul 2017 03:24:17.882,18 Jul 2017 03:33:50.618,572.735
323,18 Jul 2017 05:06:02.187,18 Jul 2017 05:13:40.056,457.869
324,19 Jul 2017 02:51:59.190,19 Jul 2017 02:59:19.260,440.069
325,19 Jul 2017 04:31:09.961,19 Jul 2017 04:40:52.346,582.386
326,20 Jul 2017 03:57:04.948,20 Jul 2017 04:07:31.716,626.768
327,21 Jul 2017 03:23:36.845,21 Jul 2017 03:33:47.804,610.959
328,21 Jul 2017 05:07:08.999,21 Jul 2017 05:12:19.421,310.422
329,22 Jul 2017 02:50:47.851,22 Jul 2017 02:59:38.385,530.534
330,22 Jul 2017 04:31:28.675,22 Jul 2017 04:40:10.652,521.977
331,23 Jul 2017 03:56:58.383,23 Jul 2017 04:07:06.892,608.510
332,24 Jul 2017 03:23:08.920,24 Jul 2017 03:33:36.236,627.316
333,25 Jul 2017 02:49:55.974,25 Jul 2017 02:59:42.609,586.635
334,25 Jul 2017 04:32:09.229,25 Jul 2017 04:39:11.968,422.739
335,26 Jul 2017 03:57:05.462,26 Jul 2017 04:06:32.885,567.423
336,27 Jul 2017 03:22:53.268,27 Jul 2017 03:33:16.723,623.455
337,28 Jul 2017 02:49:18.702,28 Jul 2017 02:59:36.630,617.928
338,28 Jul 2017 04:33:34.866,28 Jul 2017 04:37:33.391,238.525
339,29 Jul 2017 03:57:29.423,29 Jul 2017 04:05:46.647,497.224
340,30 Jul 2017 03:22:50.253,30 Jul 2017 03:32:48.955,598.702
341,31 Jul 2017 02:48:54.144,31 Jul 2017 02:59:22.277,628.133
342,1 Aug 2017 03:58:18.839,1 Aug 2017 04:04:39.894,381.055
343,2 Aug 2017 03:23:01.563,2 Aug 2017 03:32:11.367,549.804
344,3 Aug 2017 02:48:41.846,3 Aug 2017 02:58:59.999,618.153
345,4 Aug 2017 04:00:22.516,4 Aug 2017 04:02:24.179,121.663
346,5 Aug 2017 03:23:31.432,5 Aug 2017 03:31:19.936,468.504
347,6 Aug 2017 02:48:42.500,6 Aug 2017 02:58:29.163,586.664
348,7 Aug 2017 02:23:48.664,7 Aug 2017 02:25:06.612,77.948
349,8 Aug 2017 03:24:32.224,8 Aug 2017 03:30:02.612,330.388
350,8 Aug 2017 12:17:24.463,8 Aug 2017 12:21:02.556,218.093
351,9 Aug 2017 02:48:58.367,9 Aug 2017 02:57:47.668,529.301
352,10 Aug 2017 02:20:46.550,10 Aug 2017 02:24:41.527,234.976
353,10 Aug 2017 12:48:17.119,10 Aug 2017 12:49:54.579,97.460
354,11 Aug 2017 12:15:39.775,11 Aug 2017 12:22:32.730,412.955
355,12 Aug 2017 02:49:35.047,12 Aug 2017 02:56:50.145,435.098
356,13 Aug 2017 02:17:34.332,13 Aug 2017 02:24:07.455,393.123
357,13 Aug 2017 12:47:41.394,13 Aug 2017 12:52:07.351,265.957
358,14 Aug 2017 12:14:38.414,14 Aug 2017 12:23:13.685,515.271
359,15 Aug 2017 02:50:51.855,15 Aug 2017 02:55:17.622,265.766
360,15 Aug 2017 11:42:33.319,15 Aug 2017 11:47:28.203,294.884
361,16 Aug 2017 02:14:55.994,16 Aug 2017 02:23:21.630,505.637
362,16 Aug 2017 12:47:14.593,16 Aug 2017 12:54:19.886,425.293
363,17 Aug 2017 12:13:54.303,17 Aug 2017 12:23:31.850,577.547
364,18 Aug 2017 11:41:07.784,18 Aug 2017 11:48:36.727,448.944
365,19 Aug 2017 02:15:40.811,19 Aug 2017 02:22:16.713,395.902
366,19 Aug 2017 12:46:55.488,19 Aug 2017 12:56:31.984,576.496
367,20 Aug 2017 12:13:21.058,20 Aug 2017 12:23:33.880,612.822
368,21 Aug 2017 11:40:12.304,21 Aug 2017 11:49:09.445,537.141
369,22 Aug 2017 02:17:25.168,22 Aug 2017 02:20:17.488,172.320
370,22 Aug 2017 11:07:50.832,22 Aug 2017 11:13:42.809,351.977
371,22 Aug 2017 12:46:44.050,22 Aug 2017 12:56:45.993,601.943
372,23 Aug 2017 12:12:56.226,23 Aug 2017 12:23:22.391,626.165
373,24 Aug 2017 11:39:31.447,24 Aug 2017 11:49:22.089,590.642
374,25 Aug 2017 11:06:37.181,25 Aug 2017 11:14:37.030,479.848
375,25 Aug 2017 12:46:41.363,25 Aug 2017 12:55:59.479,558.116
376,26 Aug 2017 10:35:10.115,26 Aug 2017 10:38:09.209,179.095
377,26 Aug 2017 12:12:38.980,26 Aug 2017 12:22:58.315,619.335
378,27 Aug 2017 11:39:00.487,27 Aug 2017 11:49:19.631,619.144
379,28 Aug 2017 11:05:46.475,28 Aug 2017 11:15:02.647,556.172
380,28 Aug 2017 12:46:50.454,28 Aug 2017 12:54:56.049,485.595
381,29 Aug 2017 10:33:12.716,29 Aug 2017 10:39:50.715,397.999
382,29 Aug 2017 12:12:29.568,29 Aug 2017 12:22:21.400,591.832
383,30 Aug 2017 11:38:37.569,30 Aug 2017 11:49:04.080,626.510
384,31 Aug 2017 11:05:08.500,31 Aug 2017 11:15:10.181,601.681
385,31 Aug 2017 12:47:19.668,31 Aug 2017 12:53:27.173,367.505
386,1 Sep 2017 10:32:07.503,1 Sep 2017 10:40:34.117,506.614
387,1 Sep 2017 12:12:29.534,1 Sep 2017 12:21:30.064,540.530
388,2 Sep 2017 10:00:09.981,2 Sep 2017 10:04:39.303,269.323
389,2 Sep 2017 11:38:22.189,2 Sep 2017 11:48:35.989,613.800
390,3 Sep 2017 11:04:39.682,3 Sep 2017 11:14:56.052,616.370
391,3 Sep 2017 12:49:03.497,3 Sep 2017 12:50:38.113,94.616
392,4 Sep 2017 10:31:20.815,4 Sep 2017 10:39:55.846,515.032
393,4 Sep 2017 12:12:42.839,4 Sep 2017 12:20:17.835,454.996
394,5 Sep 2017 09:58:37.233,5 Sep 2017 10:05:09.005,391.772
395,5 Sep 2017 11:38:14.949,5 Sep 2017 11:45:31.766,436.817
396,6 Sep 2017 11:04:18.635,6 Sep 2017 11:10:54.919,396.284
397,7 Sep 2017 10:30:45.436,7 Sep 2017 10:36:25.097,339.661
398,7 Sep 2017 12:13:21.611,7 Sep 2017 12:16:48.906,207.295
399,8 Sep 2017 09:57:38.473,8 Sep 2017 10:02:00.875,262.402
400,8 Sep 2017 11:38:17.879,8 Sep 2017 11:42:25.046,247.167
401,9 Sep 2017 09:25:22.290,9 Sep 2017 09:27:41.262,138.971
402,9 Sep 2017 11:04:05.184,9 Sep 2017 11:08:05.734,240.551
403,10 Sep 2017 10:30:18.644,10 Sep 2017 10:33:50.247,211.604
404,11 Sep 2017 09:56:55.232,11 Sep 2017 09:59:38.033,162.801
405,11 Sep 2017 11:38:36.267,11 Sep 2017 11:40:02.986,86.719
406,12 Sep 2017 09:24:03.476,12 Sep 2017 09:25:28.654,85.178
407,12 Sep 2017 11:04:00.278,12 Sep 2017 11:05:53.798,113.520
408,13 Sep 2017 10:29:59.462,13 Sep 2017 10:31:47.070,107.608
409,14 Sep 2017 09:56:22.227,14 Sep 2017 09:57:42.516,80.289
410,15 Sep 2017 09:23:09.879,15 Sep 2017 09:23:39.899,30.020
411,16 Sep 2017 10:29:48.023,16 Sep 2017 10:30:04.723,16.701
412,17 Sep 2017 09:55:57.386,17 Sep 2017 09:56:05.506,8.120

"Access","Start Time (UTCG)","Stop Time (UTCG)","Duration (sec)"
1,14 Oct 2016 01:06:53.255,14 Oct 2016 01:13:30.152,396.896
2,14 Oct 2016 12:17:40.181,14 Oct 2016 12:28:05.960,625.779
3,15 Oct 2016 11:44:22.179,15 Oct 2016 11:54:28.373,606.195
4,15 Oct 2016 13:27:41.964,15 Oct 2016 13:33:10.246,328.282
5,16 Oct 2016 11:11:43.539,16 Oct 2016 11:20:24.955,521.416
6,16 Oct 2016 12:52:16.265,16 Oct 2016 13:01:03.581,527.316
7,17 Oct 2016 01:08:35.392,17 Oct 2016 01:11:36.192,180.800
8,17 Oct 2016 10:40:08.776,17 Oct 2016 10:45:31.795,323.019
9,17 Oct 2016 12:17:56.551,17 Oct 2016 12:28:05.777,609.226
10,18 Oct 2016 11:44:16.813,18 Oct 2016 11:54:41.798,624.986
11,19 Oct 2016 11:11:13.386,19 Oct 2016 11:20:54.960,581.574
12,19 Oct 2016 12:53:20.132,19 Oct 2016 13:00:29.758,429.626
13,20 Oct 2016 10:38:54.398,20 Oct 2016 10:46:37.374,462.976
14,20 Oct 2016 12:18:27.252,20 Oct 2016 12:27:56.323,569.071
15,21 Oct 2016 10:08:27.707,21 Oct 2016 10:10:42.034,134.327
16,21 Oct 2016 11:47:59.216,21 Oct 2016 11:54:47.061,407.845
17,22 Oct 2016 11:16:55.192,22 Oct 2016 11:21:14.217,259.025
18,22 Oct 2016 12:57:30.919,22 Oct 2016 12:59:17.190,106.271
19,23 Oct 2016 10:45:00.373,23 Oct 2016 10:47:17.062,136.689
20,23 Oct 2016 12:25:34.054,23 Oct 2016 12:27:34.515,120.461
21,24 Oct 2016 11:53:16.498,24 Oct 2016 11:54:43.921,87.422
22,25 Oct 2016 11:20:46.371,25 Oct 2016 11:21:24.827,38.455
23,6 Jan 2017 14:34:27.733,6 Jan 2017 14:37:17.631,169.897
24,9 Jan 2017 14:32:52.529,9 Jan 2017 14:39:30.984,398.455
25,12 Jan 2017 14:32:13.397,12 Jan 2017 14:40:01.993,468.596
26,13 Jan 2017 14:00:21.484,13 Jan 2017 14:05:00.069,278.584
27,15 Jan 2017 14:31:53.672,15 Jan 2017 14:39:22.092,448.421
28,16 Jan 2017 13:59:16.834,16 Jan 2017 14:06:40.862,444.028
29,18 Jan 2017 14:31:45.833,18 Jan 2017 14:38:25.439,399.607
30,19 Jan 2017 03:24:40.181,19 Jan 2017 03:25:28.163,47.982
31,19 Jan 2017 13:58:45.959,19 Jan 2017 14:07:42.194,536.236
32,20 Jan 2017 02:51:10.250,20 Jan 2017 02:53:21.231,130.981
33,20 Jan 2017 13:26:33.370,20 Jan 2017 13:32:23.852,350.482
34,21 Jan 2017 02:18:17.407,21 Jan 2017 02:21:25.975,188.568
35,21 Jan 2017 03:59:41.440,21 Jan 2017 04:02:01.165,139.725
36,21 Jan 2017 14:31:47.116,21 Jan 2017 14:37:12.421,325.305
37,22 Jan 2017 01:46:14.896,22 Jan 2017 01:49:48.175,213.279
38,22 Jan 2017 03:25:04.929,22 Jan 2017 03:30:25.008,320.079
39,22 Jan 2017 13:58:30.895,22 Jan 2017 14:08:22.365,591.470
40,23 Jan 2017 02:51:12.848,23 Jan 2017 02:59:25.288,492.440
41,23 Jan 2017 13:25:44.794,23 Jan 2017 13:33:46.642,481.848
42,24 Jan 2017 02:17:57.083,24 Jan 2017 02:28:00.635,603.552
43,24 Jan 2017 04:01:05.221,24 Jan 2017 04:06:51.284,346.064
44,24 Jan 2017 12:54:22.577,24 Jan 2017 12:57:31.683,189.106
45,24 Jan 2017 14:31:56.600,24 Jan 2017 14:35:43.481,226.881
46,25 Jan 2017 01:45:21.199,25 Jan 2017 01:53:55.599,514.400
47,25 Jan 2017 03:25:45.501,25 Jan 2017 03:34:39.879,534.377
48,25 Jan 2017 13:58:26.459,25 Jan 2017 14:08:46.817,620.359
49,26 Jan 2017 01:13:52.595,26 Jan 2017 01:18:57.474,304.879
50,26 Jan 2017 02:51:28.567,26 Jan 2017 03:01:40.454,611.887
51,26 Jan 2017 13:25:20.429,26 Jan 2017 13:34:39.658,559.228
52,27 Jan 2017 02:17:51.060,27 Jan 2017 02:28:15.362,624.301
53,27 Jan 2017 12:52:53.378,27 Jan 2017 12:59:39.044,405.666
54,27 Jan 2017 14:32:14.572,27 Jan 2017 14:33:59.119,104.547
55,28 Jan 2017 01:44:49.961,28 Jan 2017 01:54:27.315,577.354
56,28 Jan 2017 03:26:47.465,28 Jan 2017 03:34:08.564,441.099
57,28 Jan 2017 13:58:30.670,28 Jan 2017 14:08:57.690,627.020
58,29 Jan 2017 01:12:34.323,29 Jan 2017 01:20:07.537,453.214
59,29 Jan 2017 02:51:58.460,29 Jan 2017 03:01:32.452,573.992
60,29 Jan 2017 13:25:09.473,29 Jan 2017 13:35:14.025,604.552
61,30 Jan 2017 02:17:58.192,30 Jan 2017 02:28:21.886,623.694
62,30 Jan 2017 12:52:15.565,30 Jan 2017 13:00:49.188,513.623
63,31 Jan 2017 01:44:34.847,31 Jan 2017 01:54:47.959,613.112
64,31 Jan 2017 03:28:29.865,31 Jan 2017 03:33:02.592,272.726
65,31 Jan 2017 12:20:20.257,31 Jan 2017 12:25:10.734,290.477
66,31 Jan 2017 13:58:43.056,31 Jan 2017 14:08:55.520,612.464
67,1 Feb 2017 01:11:49.631,1 Feb 2017 01:20:49.380,539.750
68,1 Feb 2017 02:52:45.557,1 Feb 2017 03:01:12.488,506.931
69,1 Feb 2017 13:25:08.230,1 Feb 2017 13:35:33.652,625.422
70,2 Feb 2017 02:18:18.647,2 Feb 2017 02:28:20.058,601.411
71,2 Feb 2017 12:51:56.595,2 Feb 2017 13:01:35.054,578.459
72,3 Feb 2017 01:44:33.455,3 Feb 2017 01:54:59.827,626.372
73,3 Feb 2017 12:19:18.425,3 Feb 2017 12:26:48.742,450.317
74,3 Feb 2017 13:59:04.339,3 Feb 2017 14:08:39.560,575.221
75,4 Feb 2017 01:11:24.431,4 Feb 2017 01:21:16.886,592.455
76,4 Feb 2017 02:53:57.850,4 Feb 2017 03:00:32.864,395.014
77,4 Feb 2017 13:25:15.323,4 Feb 2017 13:35:40.039,624.716
78,5 Feb 2017 02:18:54.037,5 Feb 2017 02:28:08.413,554.377
79,5 Feb 2017 12:51:49.338,5 Feb 2017 13:02:04.053,614.715
80,6 Feb 2017 01:44:45.137,6 Feb 2017 01:55:03.576,618.438
81,6 Feb 2017 12:18:48.640,6 Feb 2017 12:27:49.033,540.393
82,6 Feb 2017 13:59:36.970,6 Feb 2017 14:08:07.268,510.298
83,7 Feb 2017 01:11:14.254,7 Feb 2017 01:21:34.378,620.123
84,7 Feb 2017 02:56:14.870,7 Feb 2017 02:58:54.441,159.571
85,7 Feb 2017 11:46:33.801,7 Feb 2017 11:52:33.444,359.644
86,7 Feb 2017 13:25:30.708,7 Feb 2017 13:35:33.265,602.556
87,8 Feb 2017 02:19:48.524,8 Feb 2017 02:27:43.008,474.483
88,8 Feb 2017 12:51:51.132,8 Feb 2017 13:02:19.017,627.885
89,9 Feb 2017 01:45:10.521,9 Feb 2017 01:54:58.650,588.129
90,9 Feb 2017 12:18:34.292,9 Feb 2017 12:28:28.551,594.260
91,9 Feb 2017 14:00:27.533,9 Feb 2017 14:07:11.886,404.352
92,10 Feb 2017 01:11:17.431,10 Feb 2017 01:21:43.476,626.044
93,10 Feb 2017 11:45:47.099,10 Feb 2017 11:53:54.404,487.305
94,10 Feb 2017 13:25:55.589,10 Feb 2017 13:35:12.082,556.493
95,11 Feb 2017 02:21:14.256,11 Feb 2017 02:26:52.020,337.764
96,11 Feb 2017 11:14:18.600,11 Feb 2017 11:17:46.247,207.647
97,11 Feb 2017 12:52:01.117,11 Feb 2017 13:02:20.907,619.790
98,12 Feb 2017 01:45:51.882,12 Feb 2017 01:54:42.929,531.047
99,12 Feb 2017 12:18:30.437,12 Feb 2017 12:28:52.491,622.054
100,12 Feb 2017 14:02:04.803,12 Feb 2017 14:05:24.384,199.581
101,13 Feb 2017 01:11:33.747,13 Feb 2017 01:21:44.395,610.649
102,13 Feb 2017 11:45:23.678,13 Feb 2017 11:54:46.521,562.843
103,13 Feb 2017 13:26:33.379,13 Feb 2017 13:34:32.950,479.571
104,14 Feb 2017 11:12:54.972,14 Feb 2017 11:19:48.058,413.086
105,14 Feb 2017 12:52:19.648,14 Feb 2017 13:02:09.379,589.730
106,15 Feb 2017 01:46:55.026,15 Feb 2017 01:54:10.867,435.841
107,15 Feb 2017 12:18:35.182,15 Feb 2017 12:29:02.893,627.711
108,16 Feb 2017 01:12:04.318,16 Feb 2017 01:21:36.128,571.811
109,16 Feb 2017 11:45:13.400,16 Feb 2017 11:55:20.265,606.865
110,16 Feb 2017 13:27:33.993,16 Feb 2017 13:33:25.757,351.765
111,17 Feb 2017 11:12:18.577,17 Feb 2017 11:20:56.820,518.243
112,17 Feb 2017 12:52:48.525,17 Feb 2017 13:01:42.551,534.027
113,18 Feb 2017 01:48:40.400,18 Feb 2017 01:53:02.382,261.982
114,18 Feb 2017 10:40:20.075,18 Feb 2017 10:42:43.282,143.206
115,18 Feb 2017 10:44:27.002,18 Feb 2017 10:45:22.079,55.077
116,18 Feb 2017 12:18:48.102,18 Feb 2017 12:22:43.113,235.011
117,18 Feb 2017 12:25:28.446,18 Feb 2017 12:29:00.234,211.788
118,19 Feb 2017 01:13:20.396,19 Feb 2017 01:21:15.725,475.329
119,19 Feb 2017 11:45:12.732,19 Feb 2017 11:47:00.321,107.588
120,19 Feb 2017 11:55:26.502,19 Feb 2017 11:55:39.369,12.867
121,20 Feb 2017 11:12:00.449,20 Feb 2017 11:12:32.952,32.503
122,22 Feb 2017 01:16:07.330,22 Feb 2017 01:20:35.117,267.787
123,14 Apr 2017 06:45:31.711,14 Apr 2017 06:45:37.142,5.431
124,15 Apr 2017 06:12:17.489,15 Apr 2017 06:12:18.402,0.914
125,17 Apr 2017 06:45:40.747,17 Apr 2017 06:46:10.612,29.865
126,18 Apr 2017 06:12:12.431,18 Apr 2017 06:12:52.890,40.459
127,19 Apr 2017 05:39:08.672,19 Apr 2017 05:39:35.525,26.853
128,20 Apr 2017 06:45:58.169,20 Apr 2017 06:46:47.335,49.166
129,21 Apr 2017 06:12:16.156,21 Apr 2017 06:13:30.762,74.606
130,22 Apr 2017 05:38:56.842,22 Apr 2017 05:40:14.591,77.749
131,23 Apr 2017 05:06:05.735,23 Apr 2017 05:06:58.845,53.110
132,23 Apr 2017 06:46:25.513,23 Apr 2017 06:47:27.738,62.225
133,24 Apr 2017 06:12:28.038,24 Apr 2017 06:14:12.469,104.431
134,25 Apr 2017 05:38:54.997,25 Apr 2017 05:40:57.664,122.667
135,26 Apr 2017 05:05:45.449,26 Apr 2017 05:07:43.344,117.895
136,26 Apr 2017 06:47:06.881,26 Apr 2017 06:48:12.339,65.458
137,27 Apr 2017 04:33:11.127,27 Apr 2017 04:34:29.533,78.407
138,27 Apr 2017 06:12:48.661,27 Apr 2017 06:14:58.568,129.908
139,28 Apr 2017 05:39:01.584,28 Apr 2017 05:41:45.333,163.749
140,29 Apr 2017 05:05:37.394,29 Apr 2017 05:08:32.659,175.265
141,29 Apr 2017 06:48:15.144,29 Apr 2017 06:49:01.773,46.629
142,30 Apr 2017 04:32:39.160,30 Apr 2017 04:35:20.573,161.412
143,30 Apr 2017 06:13:20.216,30 Apr 2017 06:15:49.733,149.517
144,1 May 2017 04:00:30.659,1 May 2017 04:02:09.109,98.450
145,1 May 2017 05:39:16.386,1 May 2017 05:42:38.315,201.929
146,2 May 2017 05:05:38.596,2 May 2017 05:09:27.553,228.957
147,3 May 2017 04:32:23.685,3 May 2017 04:36:17.473,233.788
148,3 May 2017 06:14:08.556,3 May 2017 06:16:46.778,158.222
149,4 May 2017 03:59:39.667,4 May 2017 04:03:08.121,208.455
150,4 May 2017 05:39:40.471,4 May 2017 05:43:37.483,237.012
151,5 May 2017 03:28:29.698,5 May 2017 03:29:59.529,89.831
152,5 May 2017 05:05:48.022,5 May 2017 05:10:28.951,280.928
153,6 May 2017 04:32:19.085,6 May 2017 04:37:21.231,302.146
154,6 May 2017 06:15:36.485,6 May 2017 06:17:50.708,134.223
155,7 May 2017 03:59:14.527,7 May 2017 04:04:14.363,299.835
156,7 May 2017 05:40:16.896,7 May 2017 05:44:43.905,267.010
157,8 May 2017 03:26:50.484,8 May 2017 03:31:08.397,257.913
158,8 May 2017 05:06:05.886,8 May 2017 05:11:38.010,332.124
159,9 May 2017 04:32:23.230,9 May 2017 04:38:33.070,369.840
160,10 May 2017 03:59:03.262,10 May 2017 04:05:29.145,385.883
161,10 May 2017 05:41:14.297,10 May 2017 05:45:58.902,284.605
162,11 May 2017 03:26:11.128,11 May 2017 03:32:26.294,375.165
163,11 May 2017 05:06:33.787,11 May 2017 05:12:56.134,382.346
164,12 May 2017 02:54:21.585,12 May 2017 02:58:53.325,271.740
165,12 May 2017 04:32:35.534,12 May 2017 04:39:54.508,438.974
166,13 May 2017 03:59:01.885,13 May 2017 04:06:54.088,472.203
167,13 May 2017 05:43:33.212,13 May 2017 05:44:53.931,80.719
168,14 May 2017 03:25:51.597,14 May 2017 03:33:54.955,483.358
169,14 May 2017 05:07:16.008,14 May 2017 05:14:25.067,429.059
170,15 May 2017 02:53:15.802,15 May 2017 03:00:36.785,440.982
171,15 May 2017 04:32:56.655,15 May 2017 04:41:27.397,510.742
172,16 May 2017 03:59:08.911,16 May 2017 04:08:31.175,562.263
173,17 May 2017 03:25:44.100,17 May 2017 03:35:36.492,592.392
174,17 May 2017 05:08:26.233,17 May 2017 05:13:33.463,307.231
175,18 May 2017 02:52:44.961,18 May 2017 03:01:39.590,534.629
176,18 May 2017 04:33:28.865,18 May 2017 04:42:04.471,515.605
177,19 May 2017 02:25:08.030,19 May 2017 02:26:19.883,71.852
178,19 May 2017 03:59:24.196,19 May 2017 04:09:28.603,604.407
179,20 May 2017 03:25:45.795,20 May 2017 03:36:12.927,627.132
180,21 May 2017 02:52:30.193,21 May 2017 03:02:20.961,590.768
181,21 May 2017 04:34:18.280,21 May 2017 04:41:11.664,413.384
182,22 May 2017 02:27:19.301,22 May 2017 02:27:44.557,25.256
183,22 May 2017 03:59:48.842,22 May 2017 04:09:09.062,560.220
184,23 May 2017 03:25:55.704,23 May 2017 03:36:16.300,620.596
185,24 May 2017 02:52:26.161,24 May 2017 03:02:46.495,620.334
186,24 May 2017 04:35:49.696,24 May 2017 04:39:31.460,221.763
187,25 May 2017 04:00:26.050,25 May 2017 04:08:31.933,485.883
188,26 May 2017 03:26:14.093,26 May 2017 03:36:06.310,592.218
189,27 May 2017 02:52:30.812,27 May 2017 03:02:58.397,627.585
190,28 May 2017 04:01:24.906,28 May 2017 04:07:27.923,363.017
191,29 May 2017 03:26:42.648,29 May 2017 03:35:41.221,538.574
192,30 May 2017 02:52:43.647,30 May 2017 03:02:57.238,613.591
193,31 May 2017 04:04:08.893,31 May 2017 04:04:33.282,24.388
194,1 Jun 2017 03:27:25.835,1 Jun 2017 03:34:56.400,450.565
195,2 Jun 2017 02:53:05.363,2 Jun 2017 03:02:42.306,576.943
196,4 Jun 2017 03:28:38.230,4 Jun 2017 03:33:37.062,298.832
197,5 Jun 2017 02:53:38.338,5 Jun 2017 03:02:11.124,512.786
198,8 Jun 2017 02:54:28.982,8 Jun 2017 03:01:17.105,408.123
199,11 Jun 2017 02:56:04.504,11 Jun 2017 02:59:32.798,208.293
200,15 Jun 2017 11:56:33.287,15 Jun 2017 11:58:05.236,91.949
201,18 Jun 2017 11:54:08.293,18 Jun 2017 12:00:20.077,371.784
202,21 Jun 2017 11:53:06.330,21 Jun 2017 12:01:17.463,491.134
203,22 Jun 2017 11:22:00.469,22 Jun 2017 11:25:59.643,239.173
204,24 Jun 2017 11:52:30.412,24 Jun 2017 12:01:54.099,563.687
205,25 Jun 2017 11:20:25.300,25 Jun 2017 11:27:26.738,421.438
206,27 Jun 2017 11:52:11.852,27 Jun 2017 12:02:18.495,606.643
207,28 Jun 2017 11:19:34.261,28 Jun 2017 11:28:15.171,520.910
208,29 Jun 2017 10:48:01.099,29 Jun 2017 10:53:21.567,320.469
209,30 Jun 2017 11:52:07.509,30 Jun 2017 12:02:33.666,626.157
210,1 Jul 2017 11:19:05.039,1 Jul 2017 11:28:47.009,581.970
211,2 Jul 2017 10:46:47.139,2 Jul 2017 10:54:29.485,462.346
212,3 Jul 2017 10:16:23.935,3 Jul 2017 10:18:31.822,127.887
213,3 Jul 2017 11:52:16.319,3 Jul 2017 12:02:40.654,624.335
214,4 Jul 2017 11:18:51.731,4 Jul 2017 11:29:08.002,616.271
215,5 Jul 2017 10:46:04.922,5 Jul 2017 10:55:11.034,546.112
