examplePasses/Washington.csv

"Access","Start Time (UTCG)","Stop Time (UTCG)","Duration (sec)"
1,14 Oct 2016 12:04:06.019,14 Oct 2016 12:13:13.950,547.930
2,14 Oct 2016 13:44:30.690,14 Oct 2016 13:54:06.976,576.285
3,15 Oct 2016 01:52:15.783,15 Oct 2016 01:58:42.056,386.273
4,15 Oct 2016 11:31:52.375,15 Oct 2016 11:38:59.673,427.298
5,15 Oct 2016 13:10:28.204,15 Oct 2016 13:20:49.464,621.260
6,16 Oct 2016 01:17:53.198,16 Oct 2016 01:26:40.238,527.039
7,16 Oct 2016 11:01:08.782,16 Oct 2016 11:03:30.311,141.529
8,16 Oct 2016 12:36:53.364,16 Oct 2016 12:47:18.990,625.626
9,16 Oct 2016 14:20:18.239,16 Oct 2016 14:26:38.077,379.838
10,17 Oct 2016 12:03:45.321,17 Oct 2016 12:13:36.030,590.709
11,17 Oct 2016 13:45:12.845,17 Oct 2016 13:53:58.122,525.277
12,18 Oct 2016 01:53:29.800,18 Oct 2016 01:57:13.052,223.252
13,18 Oct 2016 11:31:07.717,18 Oct 2016 11:39:36.934,509.217
14,18 Oct 2016 13:10:51.208,18 Oct 2016 13:20:50.540,599.331
15,19 Oct 2016 01:18:27.061,19 Oct 2016 01:26:00.488,453.427
16,19 Oct 2016 10:59:15.423,19 Oct 2016 11:05:07.153,351.730
17,19 Oct 2016 12:37:00.004,19 Oct 2016 12:47:27.634,627.630
18,19 Oct 2016 14:22:11.030,19 Oct 2016 14:25:34.964,203.934
19,20 Oct 2016 12:03:35.624,20 Oct 2016 12:13:52.390,616.766
20,20 Oct 2016 13:46:10.374,20 Oct 2016 13:53:39.847,449.473
21,21 Oct 2016 11:30:38.836,21 Oct 2016 11:40:03.821,564.985
22,21 Oct 2016 13:11:25.227,21 Oct 2016 13:20:46.179,560.952
23,22 Oct 2016 01:19:17.266,22 Oct 2016 01:24:59.012,341.746
24,22 Oct 2016 10:58:16.020,22 Oct 2016 11:05:55.666,459.646
25,22 Oct 2016 12:37:16.411,22 Oct 2016 12:47:31.863,615.452
26,23 Oct 2016 10:26:57.336,23 Oct 2016 10:30:58.225,240.888
27,23 Oct 2016 12:03:35.958,23 Oct 2016 12:14:03.988,628.030
28,23 Oct 2016 13:47:31.564,23 Oct 2016 13:53:04.162,332.598
29,24 Oct 2016 11:30:22.154,24 Oct 2016 11:40:23.827,601.673
30,24 Oct 2016 13:12:12.242,24 Oct 2016 13:20:34.605,502.363
31,25 Oct 2016 01:21:05.359,25 Oct 2016 01:22:54.106,108.747
32,25 Oct 2016 10:57:37.509,25 Oct 2016 11:06:28.783,531.274
33,25 Oct 2016 12:37:43.122,25 Oct 2016 12:47:31.257,588.135
34,26 Oct 2016 10:25:32.937,26 Oct 2016 10:32:08.191,395.254
35,26 Oct 2016 12:03:45.996,26 Oct 2016 12:14:11.189,625.194
36,26 Oct 2016 13:50:21.149,26 Oct 2016 13:51:06.718,45.569
37,27 Oct 2016 11:30:16.055,27 Oct 2016 11:40:38.537,622.482
38,27 Oct 2016 13:13:16.572,27 Oct 2016 13:20:11.785,415.213
39,28 Oct 2016 10:57:13.180,28 Oct 2016 11:06:53.085,579.905
40,28 Oct 2016 12:38:21.389,28 Oct 2016 12:47:24.741,543.352
41,29 Oct 2016 10:24:42.153,29 Oct 2016 10:32:50.133,487.980
42,29 Oct 2016 12:04:05.928,29 Oct 2016 12:14:13.892,607.964
43,30 Oct 2016 09:53:02.991,30 Oct 2016 09:58:10.029,307.038
44,30 Oct 2016 11:30:19.804,30 Oct 2016 11:40:48.669,628.865
45,30 Oct 2016 13:14:51.178,30 Oct 2016 13:19:25.061,273.882
46,31 Oct 2016 10:57:00.342,31 Oct 2016 11:07:11.202,610.860
47,31 Oct 2016 12:39:13.758,31 Oct 2016 12:47:10.007,476.248
48,1 Nov 2016 10:24:09.077,1 Nov 2016 10:33:19.802,550.725
49,1 Nov 2016 12:04:36.509,1 Nov 2016 12:14:11.480,574.970
50,2 Nov 2016 09:51:54.170,2 Nov 2016 09:59:06.498,432.328
51,2 Nov 2016 11:30:33.277,2 Nov 2016 11:40:54.416,621.139
52,3 Nov 2016 09:21:03.791,3 Nov 2016 09:23:43.610,159.819
53,3 Nov 2016 10:56:57.760,3 Nov 2016 11:07:24.342,626.582
54,3 Nov 2016 12:40:26.191,3 Nov 2016 12:46:41.383,375.192
55,4 Nov 2016 10:23:49.000,4 Nov 2016 10:33:41.820,592.820
56,4 Nov 2016 12:05:19.329,4 Nov 2016 12:14:02.554,523.225
57,5 Nov 2016 09:51:10.467,5 Nov 2016 09:59:43.377,512.910
58,5 Nov 2016 11:30:56.841,5 Nov 2016 11:40:55.516,598.676
59,6 Nov 2016 09:19:16.364,6 Nov 2016 09:25:15.115,358.751
60,6 Nov 2016 10:57:04.934,6 Nov 2016 11:07:33.021,628.087
61,6 Nov 2016 12:42:22.244,6 Nov 2016 12:45:35.655,193.411
62,7 Nov 2016 10:23:39.885,7 Nov 2016 10:33:58.181,618.296
63,7 Nov 2016 12:06:17.719,7 Nov 2016 12:13:44.032,446.313
64,8 Nov 2016 09:50:42.317,8 Nov 2016 10:00:10.116,567.799
65,8 Nov 2016 11:31:31.482,8 Nov 2016 11:40:51.134,559.651
66,9 Nov 2016 09:18:18.376,9 Nov 2016 09:26:02.813,464.437
67,9 Nov 2016 10:57:21.905,9 Nov 2016 11:07:37.283,615.378
68,10 Nov 2016 08:46:56.275,10 Nov 2016 08:51:08.496,252.221
69,10 Nov 2016 10:23:40.782,10 Nov 2016 10:34:09.805,629.024
70,10 Nov 2016 12:07:40.353,10 Nov 2016 12:13:07.566,327.213
71,11 Nov 2016 09:50:26.280,11 Nov 2016 10:00:30.068,603.788
72,11 Nov 2016 11:32:19.248,11 Nov 2016 11:40:39.438,500.190
73,12 Nov 2016 09:17:40.766,12 Nov 2016 09:26:35.621,534.855
74,12 Nov 2016 10:57:49.224,12 Nov 2016 11:07:36.676,587.453
75,13 Nov 2016 08:45:34.700,13 Nov 2016 08:52:16.249,401.549
76,13 Nov 2016 10:23:51.390,13 Nov 2016 10:34:17.032,625.642
77,14 Nov 2016 09:50:20.781,14 Nov 2016 10:00:44.772,623.991
78,14 Nov 2016 11:33:24.597,14 Nov 2016 11:40:16.246,411.649
79,15 Nov 2016 09:17:17.167,15 Nov 2016 09:26:59.795,582.628
80,15 Nov 2016 10:58:28.187,15 Nov 2016 11:07:30.097,541.910
81,16 Nov 2016 08:44:45.129,16 Nov 2016 08:52:57.581,492.453
82,16 Nov 2016 10:24:11.932,16 Nov 2016 10:34:19.737,607.805
83,17 Nov 2016 08:13:03.621,17 Nov 2016 08:18:19.544,315.923
84,17 Nov 2016 09:50:25.131,17 Nov 2016 10:00:54.909,629.778
85,17 Nov 2016 11:35:01.247,17 Nov 2016 11:39:28.169,266.922
86,18 Nov 2016 09:17:04.990,18 Nov 2016 09:27:17.852,612.862
87,18 Nov 2016 10:59:21.416,18 Nov 2016 11:07:15.156,473.740
88,19 Nov 2016 08:44:12.918,19 Nov 2016 08:53:26.992,554.074
89,19 Nov 2016 10:24:43.183,19 Nov 2016 10:34:17.285,574.101
90,20 Nov 2016 08:11:56.740,20 Nov 2016 08:19:14.683,437.943
91,20 Nov 2016 09:50:39.222,20 Nov 2016 10:01:00.650,621.427
92,21 Nov 2016 07:41:00.151,21 Nov 2016 07:43:57.728,177.578
93,21 Nov 2016 09:17:03.047,21 Nov 2016 09:27:30.960,627.913
94,21 Nov 2016 11:00:35.107,21 Nov 2016 11:06:45.943,370.836
95,22 Nov 2016 08:43:53.573,22 Nov 2016 08:53:48.886,595.312
96,22 Nov 2016 10:25:26.782,22 Nov 2016 10:34:08.222,521.440
97,23 Nov 2016 08:11:14.123,23 Nov 2016 08:19:51.088,516.965
98,23 Nov 2016 09:51:03.448,23 Nov 2016 10:01:01.714,598.266
99,24 Nov 2016 07:39:18.234,24 Nov 2016 07:45:24.334,366.100
100,24 Nov 2016 09:17:10.857,24 Nov 2016 09:27:39.616,628.759
101,24 Nov 2016 11:02:34.863,24 Nov 2016 11:05:37.213,182.350
102,25 Nov 2016 08:43:45.132,25 Nov 2016 08:54:05.166,620.034
103,25 Nov 2016 10:26:26.176,25 Nov 2016 10:33:49.365,443.189
104,26 Nov 2016 08:10:46.809,26 Nov 2016 08:20:17.593,570.784
105,26 Nov 2016 09:51:38.826,26 Nov 2016 10:00:57.227,558.402
106,27 Nov 2016 07:38:21.765,27 Nov 2016 07:46:11.114,469.348
107,27 Nov 2016 09:17:28.480,27 Nov 2016 09:27:43.831,615.352
108,28 Nov 2016 07:06:56.445,28 Nov 2016 07:11:19.734,263.289
109,28 Nov 2016 08:43:46.694,28 Nov 2016 08:54:16.733,630.039
110,28 Nov 2016 10:27:50.457,28 Nov 2016 10:33:11.920,321.464
111,29 Nov 2016 08:10:31.506,29 Nov 2016 08:20:37.410,605.904
112,29 Nov 2016 09:52:27.467,29 Nov 2016 10:00:45.298,497.831
113,30 Nov 2016 07:37:45.148,30 Nov 2016 07:46:43.529,538.381
114,30 Nov 2016 09:17:56.516,30 Nov 2016 09:27:43.132,586.616
115,1 Dec 2016 07:05:37.646,1 Dec 2016 07:12:25.313,407.667
116,1 Dec 2016 08:43:57.969,1 Dec 2016 08:54:23.893,625.924
117,2 Dec 2016 08:10:26.691,2 Dec 2016 08:20:52.014,625.323
118,2 Dec 2016 09:53:34.006,2 Dec 2016 10:00:21.571,407.565
119,3 Dec 2016 07:37:22.358,3 Dec 2016 07:47:07.483,585.125
120,3 Dec 2016 09:18:36.285,3 Dec 2016 09:27:36.374,540.089
121,4 Dec 2016 07:04:49.343,4 Dec 2016 07:13:05.962,496.618
122,4 Dec 2016 08:44:19.210,4 Dec 2016 08:54:26.504,607.294
123,5 Dec 2016 06:33:05.658,5 Dec 2016 06:38:29.811,324.153
124,5 Dec 2016 08:10:31.729,5 Dec 2016 08:21:02.057,630.328
125,5 Dec 2016 09:55:13.089,5 Dec 2016 09:59:31.725,258.636
126,6 Dec 2016 07:37:10.913,6 Dec 2016 07:47:25.389,614.476
127,6 Dec 2016 09:19:30.502,6 Dec 2016 09:27:21.067,470.565
128,7 Dec 2016 07:04:18.049,7 Dec 2016 07:13:35.032,556.982
129,7 Dec 2016 08:44:51.221,7 Dec 2016 08:54:23.894,572.673
130,8 Dec 2016 06:32:00.668,8 Dec 2016 06:39:23.637,442.969
131,8 Dec 2016 08:10:46.506,8 Dec 2016 08:21:07.695,621.190
132,9 Dec 2016 06:00:58.935,9 Dec 2016 06:04:11.515,192.580
133,9 Dec 2016 07:37:09.653,9 Dec 2016 07:47:38.375,628.722
134,9 Dec 2016 09:20:45.666,9 Dec 2016 09:26:51.019,365.353
135,10 Dec 2016 07:03:59.487,10 Dec 2016 07:13:56.709,597.221
136,10 Dec 2016 08:45:35.697,10 Dec 2016 08:54:14.558,518.861
137,11 Dec 2016 06:31:19.146,11 Dec 2016 06:39:59.502,520.356
138,11 Dec 2016 08:11:11.459,11 Dec 2016 08:21:08.606,597.147
139,12 Dec 2016 05:59:21.617,12 Dec 2016 06:05:34.079,372.462
140,12 Dec 2016 07:37:18.149,12 Dec 2016 07:47:46.905,628.756
141,12 Dec 2016 09:22:50.223,12 Dec 2016 09:25:38.123,167.900
142,13 Dec 2016 07:03:51.750,13 Dec 2016 07:14:12.829,621.079
143,13 Dec 2016 08:46:36.245,13 Dec 2016 08:53:55.157,438.913
144,14 Dec 2016 06:30:52.671,14 Dec 2016 06:40:25.709,573.038
145,14 Dec 2016 08:11:47.654,14 Dec 2016 08:21:03.887,556.233
146,15 Dec 2016 05:58:26.572,15 Dec 2016 06:06:19.974,473.402
147,15 Dec 2016 07:37:36.486,15 Dec 2016 07:47:50.969,614.483
148,16 Dec 2016 05:26:58.435,16 Dec 2016 05:31:31.080,272.645
149,16 Dec 2016 07:03:53.995,16 Dec 2016 07:14:24.247,630.252
150,16 Dec 2016 08:48:02.493,16 Dec 2016 08:53:16.358,313.865
151,17 Dec 2016 06:30:38.113,17 Dec 2016 06:40:45.312,607.199
152,17 Dec 2016 08:12:37.258,17 Dec 2016 08:20:51.572,494.314
153,18 Dec 2016 05:57:50.926,18 Dec 2016 06:06:51.944,541.019
154,18 Dec 2016 07:38:05.276,18 Dec 2016 07:47:50.067,584.791
155,19 Dec 2016 05:25:42.083,19 Dec 2016 05:32:34.744,412.661
156,19 Dec 2016 07:04:05.963,19 Dec 2016 07:14:31.252,625.289
157,20 Dec 2016 04:55:34.937,20 Dec 2016 04:56:30.888,55.951
158,20 Dec 2016 06:30:33.997,20 Dec 2016 06:40:59.742,625.745
159,20 Dec 2016 08:13:45.137,20 Dec 2016 08:20:27.084,401.947
160,21 Dec 2016 05:57:28.924,21 Dec 2016 06:07:15.623,586.698
161,21 Dec 2016 07:38:45.893,21 Dec 2016 07:47:43.006,537.113
162,22 Dec 2016 05:24:54.961,22 Dec 2016 05:33:14.725,499.763
163,22 Dec 2016 07:04:27.915,22 Dec 2016 07:14:33.676,605.760
164,23 Dec 2016 04:53:09.325,23 Dec 2016 04:58:40.180,330.855
165,23 Dec 2016 06:30:39.696,23 Dec 2016 06:41:09.624,629.928
166,23 Dec 2016 08:15:27.188,23 Dec 2016 08:19:34.837,247.649
167,24 Dec 2016 05:57:18.179,24 Dec 2016 06:07:33.327,615.148
168,24 Dec 2016 07:39:41.164,24 Dec 2016 07:47:27.186,466.022
169,25 Dec 2016 05:24:24.529,25 Dec 2016 05:33:43.429,558.900
170,25 Dec 2016 07:05:00.690,25 Dec 2016 07:14:30.816,570.126
171,25 Dec 2016 15:52:36.875,25 Dec 2016 15:55:38.742,181.867
172,26 Dec 2016 04:52:06.002,26 Dec 2016 04:59:32.838,446.836
173,26 Dec 2016 06:30:55.153,26 Dec 2016 06:41:15.084,619.931
174,27 Dec 2016 04:21:00.088,27 Dec 2016 04:24:24.530,204.442
175,27 Dec 2016 05:57:17.590,27 Dec 2016 06:07:46.138,628.548
176,27 Dec 2016 07:40:57.965,27 Dec 2016 07:46:56.044,358.079
177,28 Dec 2016 05:24:06.693,28 Dec 2016 05:34:04.858,598.165
178,28 Dec 2016 07:05:46.058,28 Dec 2016 07:14:21.105,515.047
179,28 Dec 2016 15:51:28.348,28 Dec 2016 15:57:38.601,370.253
180,29 Dec 2016 04:51:25.470,29 Dec 2016 05:00:08.194,522.724
181,29 Dec 2016 06:31:20.813,29 Dec 2016 06:41:15.784,594.971
182,30 Dec 2016 04:19:26.422,30 Dec 2016 04:25:43.932,377.510
183,30 Dec 2016 05:57:26.733,30 Dec 2016 06:07:54.499,627.766
184,30 Dec 2016 07:43:08.973,30 Dec 2016 07:45:37.240,148.268
185,31 Dec 2016 05:23:59.624,31 Dec 2016 05:34:20.792,621.168
186,31 Dec 2016 07:06:47.761,31 Dec 2016 07:14:01.057,433.296
187,31 Dec 2016 15:50:59.376,31 Dec 2016 15:58:52.469,473.093
188,1 Jan 2017 04:50:59.778,1 Jan 2017 05:00:34.091,574.313
189,1 Jan 2017 06:31:57.772,1 Jan 2017 06:41:10.781,553.009
190,1 Jan 2017 15:18:46.315,1 Jan 2017 15:23:13.016,266.701
191,2 Jan 2017 04:18:32.664,2 Jan 2017 04:26:29.022,476.358
192,2 Jan 2017 05:57:45.716,2 Jan 2017 06:07:58.381,612.665
193,3 Jan 2017 03:47:02.084,3 Jan 2017 03:51:42.204,280.120
194,3 Jan 2017 05:24:02.491,3 Jan 2017 05:34:32.050,629.559
195,3 Jan 2017 07:08:16.157,3 Jan 2017 07:13:20.617,304.460
196,3 Jan 2017 15:50:44.709,3 Jan 2017 15:59:45.947,541.239
197,4 Jan 2017 04:50:45.878,4 Jan 2017 05:00:53.490,607.612
198,4 Jan 2017 06:32:48.309,4 Jan 2017 06:40:58.023,489.714
199,4 Jan 2017 15:17:58.546,4 Jan 2017 15:24:49.905,411.360
200,5 Jan 2017 04:17:57.864,5 Jan 2017 04:27:00.602,542.738
201,5 Jan 2017 05:58:15.199,5 Jan 2017 06:07:57.251,582.051
202,6 Jan 2017 03:45:47.752,6 Jan 2017 03:52:44.303,416.552
203,6 Jan 2017 05:24:15.074,6 Jan 2017 05:34:38.896,623.822
204,6 Jan 2017 15:50:38.444,6 Jan 2017 16:00:25.235,586.791
205,7 Jan 2017 03:15:26.478,7 Jan 2017 03:16:54.185,87.707
206,7 Jan 2017 04:50:42.371,7 Jan 2017 05:01:07.758,625.387
207,7 Jan 2017 06:33:57.535,7 Jan 2017 06:40:32.677,395.142
208,7 Jan 2017 15:17:35.688,7 Jan 2017 15:25:55.582,499.894
209,8 Jan 2017 04:17:36.549,8 Jan 2017 04:27:24.043,587.495
210,8 Jan 2017 05:58:56.603,8 Jan 2017 06:07:49.875,533.272
211,8 Jan 2017 14:45:07.459,8 Jan 2017 14:50:34.992,327.532
212,9 Jan 2017 03:45:01.644,9 Jan 2017 03:53:23.724,502.080
213,9 Jan 2017 05:24:37.654,9 Jan 2017 05:34:41.136,603.482
214,9 Jan 2017 15:50:38.197,9 Jan 2017 15:59:53.153,554.957
215,10 Jan 2017 03:13:14.203,10 Jan 2017 03:18:50.605,336.402
216,10 Jan 2017 04:50:48.662,10 Jan 2017 05:01:17.495,628.833
217,10 Jan 2017 06:35:42.912,10 Jan 2017 06:39:37.605,234.693
218,10 Jan 2017 15:17:24.370,10 Jan 2017 15:26:43.755,559.385
219,11 Jan 2017 04:17:26.417,11 Jan 2017 04:27:41.579,615.162
220,11 Jan 2017 05:59:52.876,11 Jan 2017 06:07:33.532,460.656
221,11 Jan 2017 14:44:31.439,11 Jan 2017 14:51:57.984,446.545
222,12 Jan 2017 03:44:31.954,12 Jan 2017 03:53:52.134,560.180
223,12 Jan 2017 05:25:11.117,12 Jan 2017 05:34:38.045,566.928
224,12 Jan 2017 14:12:39.248,12 Jan 2017 14:15:54.490,195.242
225,12 Jan 2017 15:50:42.866,12 Jan 2017 15:58:24.666,461.800
226,13 Jan 2017 03:12:12.293,13 Jan 2017 03:19:42.300,450.006
227,13 Jan 2017 04:51:04.712,13 Jan 2017 05:01:22.812,618.100
228,13 Jan 2017 15:17:20.412,13 Jan 2017 15:27:18.868,598.456
229,14 Jan 2017 02:41:02.725,14 Jan 2017 02:44:37.255,214.530
230,14 Jan 2017 04:17:26.388,14 Jan 2017 04:27:54.264,627.876
231,14 Jan 2017 06:01:11.316,14 Jan 2017 06:07:01.232,349.916
232,14 Jan 2017 14:44:13.385,14 Jan 2017 14:52:56.842,523.457
233,15 Jan 2017 03:44:14.743,15 Jan 2017 03:54:13.380,598.637
234,15 Jan 2017 05:25:57.292,15 Jan 2017 05:34:27.988,510.697
235,15 Jan 2017 14:11:34.417,15 Jan 2017 14:17:50.609,376.193
236,15 Jan 2017 15:50:52.020,15 Jan 2017 15:56:31.811,339.790
237,16 Jan 2017 03:11:32.622,16 Jan 2017 03:20:17.248,524.627
238,16 Jan 2017 04:51:30.982,16 Jan 2017 05:01:23.349,592.367
239,16 Jan 2017 15:17:21.989,16 Jan 2017 15:27:42.959,620.971
240,17 Jan 2017 02:39:32.086,17 Jan 2017 02:45:54.094,382.008
241,17 Jan 2017 04:17:36.093,17 Jan 2017 04:28:02.513,626.420
242,17 Jan 2017 06:03:30.433,17 Jan 2017 06:05:34.818,124.385
243,17 Jan 2017 14:44:04.964,17 Jan 2017 14:53:40.203,575.239
244,18 Jan 2017 03:44:08.233,18 Jan 2017 03:54:29.190,620.957
245,18 Jan 2017 05:27:00.100,18 Jan 2017 05:34:07.310,427.211
246,18 Jan 2017 14:11:06.402,18 Jan 2017 14:19:03.513,477.111
247,18 Jan 2017 15:51:05.690,18 Jan 2017 15:54:15.597,189.907
248,19 Jan 2017 03:11:07.595,19 Jan 2017 03:20:42.928,575.333
249,19 Jan 2017 04:52:08.633,19 Jan 2017 05:01:18.112,549.479
250,19 Jan 2017 13:38:50.843,19 Jan 2017 13:43:27.148,276.305
251,19 Jan 2017 15:17:28.271,19 Jan 2017 15:27:57.017,628.745
252,20 Jan 2017 02:38:39.437,20 Jan 2017 02:46:38.532,479.095
253,20 Jan 2017 04:17:55.648,20 Jan 2017 04:28:06.271,610.623
254,20 Jan 2017 14:44:03.107,20 Jan 2017 14:54:11.383,608.275
255,21 Jan 2017 02:07:06.470,21 Jan 2017 02:11:53.704,287.233
256,21 Jan 2017 03:44:11.639,21 Jan 2017 03:54:40.356,628.717
257,21 Jan 2017 05:28:30.676,21 Jan 2017 05:33:25.191,294.515
258,21 Jan 2017 14:10:52.280,21 Jan 2017 14:19:56.469,544.189
259,21 Jan 2017 15:51:24.402,21 Jan 2017 15:51:37.103,12.702
260,22 Jan 2017 03:10:54.273,22 Jan 2017 03:21:02.199,607.926
261,22 Jan 2017 04:53:00.025,22 Jan 2017 05:01:04.980,484.955
262,22 Jan 2017 13:38:05.090,22 Jan 2017 13:45:02.024,416.934
263,22 Jan 2017 15:17:39.005,22 Jan 2017 15:28:01.394,622.390
264,23 Jan 2017 02:38:05.390,23 Jan 2017 02:47:09.816,544.427
265,23 Jan 2017 04:18:25.738,23 Jan 2017 04:28:04.993,579.255
266,23 Jan 2017 13:07:02.489,23 Jan 2017 13:08:05.722,63.233
267,23 Jan 2017 14:44:06.427,23 Jan 2017 14:54:31.971,625.544
268,24 Jan 2017 02:05:53.976,24 Jan 2017 02:12:54.442,420.466
269,24 Jan 2017 03:44:24.758,24 Jan 2017 03:54:47.118,622.360
270,24 Jan 2017 14:10:46.422,24 Jan 2017 14:20:35.395,588.973
271,25 Jan 2017 01:35:22.660,25 Jan 2017 01:37:13.961,111.301
272,25 Jan 2017 03:10:51.300,25 Jan 2017 03:21:16.384,625.083
273,25 Jan 2017 04:54:10.517,25 Jan 2017 05:00:38.851,388.334
274,25 Jan 2017 13:37:43.044,25 Jan 2017 13:46:06.921,503.876
275,25 Jan 2017 15:17:54.389,25 Jan 2017 15:27:55.957,601.568
276,26 Jan 2017 02:37:44.688,26 Jan 2017 02:47:33.106,588.418
277,26 Jan 2017 04:19:07.848,26 Jan 2017 04:27:57.387,529.540
278,26 Jan 2017 13:05:13.046,26 Jan 2017 13:10:48.690,335.644
279,26 Jan 2017 14:44:14.309,26 Jan 2017 14:54:42.704,628.395
280,27 Jan 2017 02:05:08.796,27 Jan 2017 02:13:33.407,504.611
281,27 Jan 2017 03:44:47.902,27 Jan 2017 03:54:49.271,601.369
282,27 Jan 2017 14:10:46.530,27 Jan 2017 14:21:02.820,616.290
283,28 Jan 2017 01:33:19.489,28 Jan 2017 01:39:01.769,342.280
284,28 Jan 2017 03:10:58.116,28 Jan 2017 03:21:26.069,627.954
285,28 Jan 2017 04:55:59.317,28 Jan 2017 04:59:40.886,221.568
286,28 Jan 2017 13:37:32.254,28 Jan 2017 13:46:54.622,562.368
287,28 Jan 2017 15:18:15.144,28 Jan 2017 15:27:39.965,564.822
288,29 Jan 2017 02:37:35.099,29 Jan 2017 02:47:50.561,615.462
289,29 Jan 2017 04:20:05.042,29 Jan 2017 04:27:40.620,455.579
290,29 Jan 2017 13:04:38.456,29 Jan 2017 13:12:10.292,451.836
291,29 Jan 2017 14:44:26.668,29 Jan 2017 14:54:43.770,617.102
292,30 Jan 2017 02:04:39.793,30 Jan 2017 02:14:01.611,561.817
293,30 Jan 2017 03:45:21.984,30 Jan 2017 03:54:46.046,564.062
294,30 Jan 2017 12:32:41.705,30 Jan 2017 12:36:11.984,210.279
295,30 Jan 2017 14:10:51.533,30 Jan 2017 14:21:19.982,628.449
296,31 Jan 2017 01:32:18.946,31 Jan 2017 01:39:52.597,453.651
297,31 Jan 2017 03:11:14.685,31 Jan 2017 03:21:31.339,616.654
298,31 Jan 2017 13:37:28.717,31 Jan 2017 13:47:29.395,600.678
299,31 Jan 2017 15:18:42.878,31 Jan 2017 15:27:11.780,508.902
300,1 Feb 2017 02:37:35.594,1 Feb 2017 02:48:03.210,627.615
301,1 Feb 2017 04:21:25.038,1 Feb 2017 04:27:07.296,342.259
302,1 Feb 2017 13:04:21.137,1 Feb 2017 13:13:08.487,527.350
303,1 Feb 2017 14:44:43.854,1 Feb 2017 14:54:34.837,590.983
304,2 Feb 2017 02:04:23.165,2 Feb 2017 02:14:22.762,599.596
305,2 Feb 2017 03:46:08.901,2 Feb 2017 03:54:35.756,506.855
306,2 Feb 2017 12:31:40.812,2 Feb 2017 12:38:04.206,383.394
307,2 Feb 2017 14:11:01.021,2 Feb 2017 14:21:27.412,626.391
308,3 Feb 2017 01:31:40.101,3 Feb 2017 01:40:27.217,527.116
309,3 Feb 2017 03:11:41.526,3 Feb 2017 03:21:31.807,590.281
310,3 Feb 2017 13:37:30.675,3 Feb 2017 13:47:53.201,622.526
311,3 Feb 2017 15:19:21.115,3 Feb 2017 15:26:27.779,426.664
312,4 Feb 2017 02:37:45.815,4 Feb 2017 02:48:11.438,625.622
313,4 Feb 2017 04:23:53.946,4 Feb 2017 04:25:31.660,97.714
314,4 Feb 2017 13:04:13.241,4 Feb 2017 13:13:51.406,578.166
315,4 Feb 2017 14:45:06.856,4 Feb 2017 14:54:14.906,548.049
316,5 Feb 2017 02:04:17.191,5 Feb 2017 02:14:38.535,621.344
317,5 Feb 2017 03:47:12.748,5 Feb 2017 03:54:14.582,421.835
318,5 Feb 2017 12:31:13.937,5 Feb 2017 12:39:16.039,482.102
319,5 Feb 2017 14:11:15.055,5 Feb 2017 14:21:25.114,610.060
320,6 Feb 2017 01:31:15.727,6 Feb 2017 01:40:52.755,577.028
321,6 Feb 2017 03:12:19.821,6 Feb 2017 03:21:26.448,546.627
322,6 Feb 2017 11:58:55.747,6 Feb 2017 12:03:42.923,287.176
323,6 Feb 2017 13:37:37.328,6 Feb 2017 13:48:06.995,629.667
324,6 Feb 2017 15:20:20.050,6 Feb 2017 15:25:17.656,297.606
325,7 Feb 2017 02:38:05.909,7 Feb 2017 02:48:15.171,609.262
326,7 Feb 2017 13:04:11.824,7 Feb 2017 13:14:22.243,610.419
327,7 Feb 2017 14:45:37.743,7 Feb 2017 14:53:41.846,484.103
328,8 Feb 2017 02:04:21.123,8 Feb 2017 02:14:49.692,628.570
329,8 Feb 2017 03:48:45.403,8 Feb 2017 03:53:30.949,285.546
330,8 Feb 2017 12:31:00.504,8 Feb 2017 12:40:08.393,547.889
331,8 Feb 2017 14:11:34.181,8 Feb 2017 14:21:12.554,578.372
332,9 Feb 2017 01:31:02.980,9 Feb 2017 01:41:11.973,608.993
333,9 Feb 2017 03:13:12.016,9 Feb 2017 03:21:13.060,481.044
334,9 Feb 2017 11:58:12.239,9 Feb 2017 12:05:15.623,423.384
335,9 Feb 2017 13:37:48.440,9 Feb 2017 13:48:11.104,622.664
336,10 Feb 2017 02:38:36.589,10 Feb 2017 02:48:13.843,577.254
337,10 Feb 2017 11:26:53.028,10 Feb 2017 11:28:36.575,103.547
338,10 Feb 2017 13:04:15.550,10 Feb 2017 13:14:42.533,626.983
339,10 Feb 2017 14:46:21.382,10 Feb 2017 14:52:50.682,389.300
340,11 Feb 2017 02:04:34.771,11 Feb 2017 02:14:56.461,621.690
341,11 Feb 2017 12:30:55.176,11 Feb 2017 12:40:46.889,591.713
342,11 Feb 2017 14:11:59.674,11 Feb 2017 14:20:48.425,528.750
343,12 Feb 2017 01:31:00.544,12 Feb 2017 01:41:26.152,625.608
344,12 Feb 2017 03:14:23.727,12 Feb 2017 03:20:46.302,382.575
345,12 Feb 2017 11:57:51.167,12 Feb 2017 12:06:19.630,508.463
346,12 Feb 2017 13:38:04.231,12 Feb 2017 13:48:05.364,601.133
347,13 Feb 2017 02:39:19.391,13 Feb 2017 02:48:06.110,526.719
348,13 Feb 2017 11:25:19.362,13 Feb 2017 11:31:03.826,344.465
349,13 Feb 2017 13:04:23.842,13 Feb 2017 13:14:52.975,629.132
350,13 Feb 2017 14:47:35.109,13 Feb 2017 14:51:23.945,228.836
351,14 Feb 2017 02:04:58.476,14 Feb 2017 02:14:58.604,600.128
352,14 Feb 2017 12:30:55.744,14 Feb 2017 12:41:13.958,618.214
353,14 Feb 2017 14:12:34.270,14 Feb 2017 14:20:09.916,455.646
354,15 Feb 2017 01:31:07.892,15 Feb 2017 01:41:35.858,627.965
355,15 Feb 2017 03:16:15.881,15 Feb 2017 03:19:45.607,209.727
356,15 Feb 2017 11:57:41.031,15 Feb 2017 12:07:06.769,565.738
357,15 Feb 2017 13:38:25.456,15 Feb 2017 13:47:49.012,563.556
358,16 Feb 2017 02:40:17.496,16 Feb 2017 02:47:49.039,451.543
359,16 Feb 2017 11:24:46.363,16 Feb 2017 11:32:23.912,457.549
360,16 Feb 2017 13:04:36.615,16 Feb 2017 13:14:53.735,617.119
361,17 Feb 2017 02:05:33.190,17 Feb 2017 02:14:55.326,562.136
362,17 Feb 2017 10:52:45.304,17 Feb 2017 10:56:30.550,225.245
363,17 Feb 2017 12:31:01.181,17 Feb 2017 12:41:30.796,629.615
364,17 Feb 2017 14:13:24.982,17 Feb 2017 14:19:09.901,344.919
365,18 Feb 2017 01:32:39.361,18 Feb 2017 01:41:41.140,541.778
366,18 Feb 2017 11:57:38.023,18 Feb 2017 12:07:41.108,603.085
367,18 Feb 2017 13:38:53.775,18 Feb 2017 13:47:20.340,506.566
368,19 Feb 2017 02:41:39.004,19 Feb 2017 02:47:14.828,335.824
369,19 Feb 2017 11:24:29.902,19 Feb 2017 11:33:21.325,531.423
370,19 Feb 2017 13:04:54.258,19 Feb 2017 13:14:44.448,590.191
371,20 Feb 2017 02:06:20.872,20 Feb 2017 02:14:44.883,504.011
372,20 Feb 2017 10:51:48.249,20 Feb 2017 10:58:18.990,390.740
373,20 Feb 2017 12:31:11.102,20 Feb 2017 12:41:37.898,626.796
374,20 Feb 2017 14:15:10.610,20 Feb 2017 14:17:09.413,118.803
375,21 Feb 2017 01:37:21.198,21 Feb 2017 01:41:41.595,260.397
376,21 Feb 2017 11:57:40.455,21 Feb 2017 12:08:04.536,624.081
377,21 Feb 2017 13:39:32.853,21 Feb 2017 13:46:35.592,422.739
378,22 Feb 2017 02:44:20.500,22 Feb 2017 02:45:27.276,66.776
379,22 Feb 2017 11:24:22.630,22 Feb 2017 11:34:03.699,581.069
380,22 Feb 2017 13:05:17.788,22 Feb 2017 13:14:24.083,546.295
381,23 Feb 2017 02:07:25.768,23 Feb 2017 02:14:23.299,417.531
382,23 Feb 2017 10:51:22.616,23 Feb 2017 10:59:29.641,487.025
383,23 Feb 2017 12:31:25.588,23 Feb 2017 12:41:35.244,609.656
384,24 Feb 2017 10:19:01.964,24 Feb 2017 10:23:59.626,297.662
385,24 Feb 2017 11:57:47.556,24 Feb 2017 12:08:17.968,630.412
386,24 Feb 2017 13:40:33.525,24 Feb 2017 13:45:23.804,290.279
387,25 Feb 2017 11:24:21.738,25 Feb 2017 11:34:34.094,612.356
388,25 Feb 2017 13:05:49.354,25 Feb 2017 13:13:50.427,481.073
389,26 Feb 2017 02:09:00.513,26 Feb 2017 02:13:38.261,277.748
390,26 Feb 2017 10:51:09.948,26 Feb 2017 11:00:21.287,551.339
391,26 Feb 2017 12:31:45.214,26 Feb 2017 12:41:22.271,577.056
392,27 Feb 2017 10:18:20.672,27 Feb 2017 10:25:30.143,429.471
393,27 Feb 2017 11:57:59.122,27 Feb 2017 12:08:21.710,622.588
394,28 Feb 2017 09:46:50.926,28 Feb 2017 09:49:02.291,131.365
395,28 Feb 2017 11:24:25.941,28 Feb 2017 11:34:53.977,628.036
396,28 Feb 2017 13:06:34.061,28 Feb 2017 13:12:58.267,384.206
397,1 Mar 2017 10:51:05.214,1 Mar 2017 11:00:59.251,594.037
398,1 Mar 2017 12:32:11.300,1 Mar 2017 12:40:57.621,526.321
399,2 Mar 2017 10:18:00.614,2 Mar 2017 10:26:33.171,512.557
400,2 Mar 2017 11:58:15.397,2 Mar 2017 12:08:15.562,600.165
401,3 Mar 2017 09:45:27.169,3 Mar 2017 09:51:19.636,352.468
402,3 Mar 2017 11:24:34.689,3 Mar 2017 11:35:04.031,629.341
403,3 Mar 2017 13:07:50.793,3 Mar 2017 13:11:28.573,217.780
404,4 Mar 2017 10:51:06.291,4 Mar 2017 11:01:25.862,619.571
405,4 Mar 2017 12:32:46.696,4 Mar 2017 12:40:18.370,451.674
406,5 Mar 2017 10:17:51.168,5 Mar 2017 10:27:19.653,568.485
407,5 Mar 2017 11:58:37.160,5 Mar 2017 12:07:58.731,561.571
408,6 Mar 2017 09:44:55.704,6 Mar 2017 09:52:38.194,462.490
409,6 Mar 2017 11:24:47.933,6 Mar 2017 11:35:04.377,616.444
410,7 Mar 2017 09:12:51.025,7 Mar 2017 09:16:49.098,238.073
411,7 Mar 2017 10:51:12.197,7 Mar 2017 11:01:42.272,630.075
412,7 Mar 2017 12:33:38.829,7 Mar 2017 12:39:16.970,338.142
413,8 Mar 2017 10:17:48.710,8 Mar 2017 10:27:53.465,604.755
414,8 Mar 2017 11:59:06.139,8 Mar 2017 12:07:29.441,503.301
415,9 Mar 2017 09:44:40.089,9 Mar 2017 09:53:34.756,534.667
416,9 Mar 2017 11:25:06.075,9 Mar 2017 11:34:54.631,588.556
417,10 Mar 2017 09:11:57.263,10 Mar 2017 09:18:34.222,396.959
418,10 Mar 2017 10:51:22.570,10 Mar 2017 11:01:48.949,626.379
419,10 Mar 2017 12:35:34.389,10 Mar 2017 12:37:06.571,92.182
420,11 Mar 2017 10:17:51.626,11 Mar 2017 10:28:16.432,624.806
421,11 Mar 2017 11:59:46.179,11 Mar 2017 12:06:43.751,417.572
422,12 Mar 2017 09:44:33.431,12 Mar 2017 09:54:16.517,583.087
423,12 Mar 2017 11:25:30.177,12 Mar 2017 11:34:33.715,543.538
424,13 Mar 2017 09:11:32.771,13 Mar 2017 09:19:43.692,490.922
425,13 Mar 2017 10:51:37.529,13 Mar 2017 11:01:45.848,608.319
426,14 Mar 2017 08:39:10.033,14 Mar 2017 08:44:16.401,306.368
427,14 Mar 2017 10:17:59.177,14 Mar 2017 10:28:29.418,630.240
428,14 Mar 2017 12:00:48.948,14 Mar 2017 12:05:29.870,280.922
429,15 Mar 2017 09:44:33.043,15 Mar 2017 09:54:46.400,613.357
430,15 Mar 2017 11:26:02.484,15 Mar 2017 11:33:59.324,476.840
431,16 Mar 2017 09:11:20.817,16 Mar 2017 09:20:34.592,553.775
432,16 Mar 2017 10:51:57.666,16 Mar 2017 11:01:32.369,574.703
433,17 Mar 2017 08:38:30.646,17 Mar 2017 08:45:44.944,434.298
434,17 Mar 2017 10:18:11.187,17 Mar 2017 10:28:32.713,621.525
435,18 Mar 2017 08:06:53.691,18 Mar 2017 08:09:24.958,151.267
436,18 Mar 2017 09:44:37.700,18 Mar 2017 09:55:05.813,628.113
437,18 Mar 2017 11:26:48.391,18 Mar 2017 11:33:05.947,377.556
438,19 Mar 2017 09:11:16.621,19 Mar 2017 09:21:11.974,595.353
439,19 Mar 2017 10:52:24.360,19 Mar 2017 11:01:07.095,522.735
440,20 Mar 2017 08:38:11.481,20 Mar 2017 08:46:47.012,515.531
441,20 Mar 2017 10:18:27.919,20 Mar 2017 10:28:26.089,598.170
442,21 Mar 2017 08:05:36.631,21 Mar 2017 08:11:35.502,358.870
443,21 Mar 2017 09:44:46.871,21 Mar 2017 09:55:15.415,628.544
444,21 Mar 2017 11:28:08.925,21 Mar 2017 11:31:32.414,203.488
445,22 Mar 2017 09:11:18.152,22 Mar 2017 09:21:38.093,619.941
446,22 Mar 2017 10:53:00.603,22 Mar 2017 11:00:26.968,446.365
447,23 Mar 2017 08:38:02.634,23 Mar 2017 08:47:32.827,570.193
448,23 Mar 2017 10:18:50.206,23 Mar 2017 10:28:08.702,558.496
449,24 Mar 2017 08:05:06.456,24 Mar 2017 08:12:52.665,466.209
450,24 Mar 2017 09:45:00.528,24 Mar 2017 09:55:15.304,614.775
451,25 Mar 2017 07:32:58.855,25 Mar 2017 07:37:07.131,248.276
452,25 Mar 2017 09:11:24.462,25 Mar 2017 09:21:54.045,629.584
453,25 Mar 2017 10:53:54.337,25 Mar 2017 10:59:23.914,329.578
454,26 Mar 2017 08:38:00.644,26 Mar 2017 08:48:06.101,605.457
455,26 Mar 2017 10:19:19.839,26 Mar 2017 10:27:38.712,498.874
456,27 Mar 2017 08:04:51.551,27 Mar 2017 08:13:48.427,536.876
457,27 Mar 2017 09:45:19.127,27 Mar 2017 09:55:05.055,585.929
458,28 Mar 2017 07:32:07.690,28 Mar 2017 07:38:49.526,401.837
459,28 Mar 2017 09:11:35.231,28 Mar 2017 09:22:00.275,625.043
460,28 Mar 2017 10:56:09.892,28 Mar 2017 10:56:53.446,43.554
461,29 Mar 2017 08:38:03.961,29 Mar 2017 08:48:28.596,624.636
462,29 Mar 2017 10:20:00.876,29 Mar 2017 10:26:51.960,411.085
463,30 Mar 2017 08:04:45.395,30 Mar 2017 08:14:29.593,584.199
464,30 Mar 2017 09:45:43.759,30 Mar 2017 09:54:43.552,539.793
465,31 Mar 2017 07:31:44.137,31 Mar 2017 07:39:57.935,493.798
466,31 Mar 2017 09:11:50.586,31 Mar 2017 09:21:56.705,606.120
467,1 Apr 2017 06:59:19.612,1 Apr 2017 07:04:33.053,313.442
468,1 Apr 2017 08:38:11.885,1 Apr 2017 08:48:41.144,629.259
469,1 Apr 2017 10:21:06.036,1 Apr 2017 10:25:35.604,269.569
470,2 Apr 2017 08:04:45.415,2 Apr 2017 08:14:58.980,613.565
471,2 Apr 2017 09:46:16.780,2 Apr 2017 09:54:08.367,471.586
472,3 Apr 2017 07:31:32.755,3 Apr 2017 07:40:48.150,555.396
473,3 Apr 2017 09:12:11.169,3 Apr 2017 09:21:42.711,571.542
474,4 Apr 2017 06:58:41.762,4 Apr 2017 07:05:59.909,438.147
475,4 Apr 2017 08:38:24.250,4 Apr 2017 08:48:43.999,619.749
476,5 Apr 2017 06:26:59.323,5 Apr 2017 06:29:46.052,166.729
477,5 Apr 2017 08:04:50.419,5 Apr 2017 08:15:17.955,627.535
478,5 Apr 2017 09:47:03.925,5 Apr 2017 09:53:13.671,369.746
479,6 Apr 2017 07:31:28.981,6 Apr 2017 07:41:25.004,596.023
480,6 Apr 2017 09:12:38.415,6 Apr 2017 09:21:16.809,518.395
481,7 Apr 2017 06:58:23.317,7 Apr 2017 07:07:01.129,517.812
482,7 Apr 2017 08:38:41.363,7 Apr 2017 08:48:36.917,595.554
483,8 Apr 2017 06:25:47.187,8 Apr 2017 06:31:51.504,364.318
484,8 Apr 2017 08:04:59.917,8 Apr 2017 08:15:27.141,627.223
485,8 Apr 2017 09:48:29.003,8 Apr 2017 09:51:35.497,186.494
486,9 Apr 2017 07:31:30.860,9 Apr 2017 07:41:50.679,619.819
487,9 Apr 2017 09:13:15.467,9 Apr 2017 09:20:35.784,440.316
488,10 Apr 2017 06:58:14.936,10 Apr 2017 07:07:46.359,571.423
489,10 Apr 2017 08:39:04.093,10 Apr 2017 08:48:19.006,554.913
490,11 Apr 2017 06:25:18.066,11 Apr 2017 06:33:07.470,469.404
491,11 Apr 2017 08:05:13.914,11 Apr 2017 08:15:26.612,612.698
492,12 Apr 2017 05:53:07.855,12 Apr 2017 05:57:25.170,257.315
493,12 Apr 2017 07:31:37.487,12 Apr 2017 07:42:06.227,628.740
494,12 Apr 2017 09:14:10.851,12 Apr 2017 09:19:30.983,320.133
495,13 Apr 2017 06:58:13.306,13 Apr 2017 07:08:19.170,605.865
496,13 Apr 2017 08:39:34.309,13 Apr 2017 08:47:48.348,494.039
497,14 Apr 2017 06:25:03.731,14 Apr 2017 06:34:02.534,538.803
498,14 Apr 2017 08:05:32.882,14 Apr 2017 08:15:15.913,583.031
499,15 Apr 2017 05:52:18.862,15 Apr 2017 05:59:05.234,406.372
500,15 Apr 2017 07:31:48.555,15 Apr 2017 07:42:12.074,623.519
501,16 Apr 2017 06:58:16.925,16 Apr 2017 07:08:41.269,624.343
502,16 Apr 2017 08:40:16.296,16 Apr 2017 08:47:00.551,404.255
503,17 Apr 2017 06:24:57.971,17 Apr 2017 06:34:43.196,585.225
504,17 Apr 2017 08:05:57.967,17 Apr 2017 08:14:53.879,535.913
505,18 Apr 2017 05:51:56.100,18 Apr 2017 06:00:12.719,496.620
506,18 Apr 2017 07:32:04.234,18 Apr 2017 07:42:08.109,603.875
507,19 Apr 2017 05:19:29.836,19 Apr 2017 05:24:50.196,320.360
508,19 Apr 2017 06:58:25.140,19 Apr 2017 07:08:53.451,628.311
509,19 Apr 2017 08:41:23.953,19 Apr 2017 08:45:41.606,257.653
510,20 Apr 2017 06:24:58.305,20 Apr 2017 06:35:12.178,613.873
511,20 Apr 2017 08:06:31.632,20 Apr 2017 08:14:17.973,466.341
512,21 Apr 2017 05:51:45.194,21 Apr 2017 06:01:02.355,557.161
513,21 Apr 2017 07:32:25.183,21 Apr 2017 07:41:53.676,568.493
514,22 Apr 2017 05:18:53.359,22 Apr 2017 05:26:15.553,442.194
515,22 Apr 2017 06:58:37.799,22 Apr 2017 07:08:55.957,618.158
516,23 Apr 2017 04:47:05.882,23 Apr 2017 04:50:07.364,181.483
517,23 Apr 2017 06:25:03.594,23 Apr 2017 06:35:30.802,627.208
518,23 Apr 2017 08:07:19.963,23 Apr 2017 08:13:22.006,362.043
519,24 Apr 2017 05:51:41.774,24 Apr 2017 06:01:38.777,597.003
520,24 Apr 2017 07:32:52.914,24 Apr 2017 07:41:27.227,514.313
521,25 Apr 2017 05:18:35.548,25 Apr 2017 05:27:16.030,520.482
522,25 Apr 2017 06:58:55.230,25 Apr 2017 07:08:48.492,593.261
523,26 Apr 2017 04:45:58.088,26 Apr 2017 04:52:08.345,370.257
524,26 Apr 2017 06:25:13.373,26 Apr 2017 06:35:39.658,626.285
525,26 Apr 2017 08:08:50.036,26 Apr 2017 08:11:38.750,168.714
526,27 Apr 2017 05:51:43.947,27 Apr 2017 06:02:04.093,620.147
527,27 Apr 2017 07:33:30.699,27 Apr 2017 07:40:45.401,434.702
528,28 Apr 2017 05:18:27.588,28 Apr 2017 05:28:00.766,573.178
529,28 Apr 2017 06:59:18.343,28 Apr 2017 07:08:30.149,551.806
530,29 Apr 2017 04:45:29.975,29 Apr 2017 04:53:23.206,473.231
531,29 Apr 2017 06:25:27.655,29 Apr 2017 06:35:38.800,611.145
532,30 Apr 2017 04:13:17.059,30 Apr 2017 04:17:44.246,267.187
533,30 Apr 2017 05:51:50.847,30 Apr 2017 06:02:19.332,628.485
534,30 Apr 2017 07:34:27.688,30 Apr 2017 07:39:38.934,311.246
535,1 May 2017 05:18:26.289,1 May 2017 05:28:33.200,606.911
536,1 May 2017 06:59:49.092,1 May 2017 07:07:58.916,489.824
537,2 May 2017 04:45:16.193,2 May 2017 04:54:17.650,541.457
538,2 May 2017 06:25:46.957,2 May 2017 06:35:27.736,580.779
539,3 May 2017 04:12:30.228,3 May 2017 04:19:22.055,411.826
540,3 May 2017 05:52:02.201,3 May 2017 06:02:24.874,622.673
541,4 May 2017 05:18:30.204,4 May 2017 05:28:54.980,624.776
542,4 May 2017 07:00:31.974,4 May 2017 07:07:10.187,398.212
543,5 May 2017 04:45:10.830,5 May 2017 04:54:57.885,587.056
544,5 May 2017 06:26:12.466,5 May 2017 06:35:05.258,532.793
545,6 May 2017 04:12:08.292,6 May 2017 04:20:28.668,500.376
546,6 May 2017 05:52:18.179,6 May 2017 06:02:20.594,602.416
547,7 May 2017 03:39:40.134,7 May 2017 03:45:08.667,328.534
548,7 May 2017 05:18:38.696,7 May 2017 05:29:06.875,628.178
549,7 May 2017 07:01:42.092,7 May 2017 07:05:48.743,246.651
550,8 May 2017 04:45:11.499,8 May 2017 04:55:26.530,615.031
551,8 May 2017 06:26:46.747,8 May 2017 06:34:28.722,461.975
552,9 May 2017 04:11:57.897,9 May 2017 04:21:17.771,559.874
553,9 May 2017 05:52:39.499,9 May 2017 06:02:05.794,566.294
554,10 May 2017 03:39:05.132,10 May 2017 03:46:32.507,447.375
555,10 May 2017 05:18:51.659,10 May 2017 05:29:09.089,617.430
556,11 May 2017 04:45:17.093,11 May 2017 04:55:44.859,627.766
557,11 May 2017 06:27:36.220,11 May 2017 06:33:31.603,355.383
558,12 May 2017 04:11:54.871,12 May 2017 04:21:53.805,598.934
559,12 May 2017 05:53:07.711,12 May 2017 06:01:38.872,511.161
560,13 May 2017 03:38:48.042,13 May 2017 03:47:32.258,524.216
561,13 May 2017 05:19:09.428,13 May 2017 05:29:01.308,591.880
562,14 May 2017 04:45:27.180,14 May 2017 04:55:53.439,626.259
563,14 May 2017 06:29:11.572,14 May 2017 06:31:43.061,151.489
564,15 May 2017 04:11:57.391,15 May 2017 04:22:18.804,621.413
565,15 May 2017 05:53:46.236,15 May 2017 06:00:56.318,430.083
566,16 May 2017 03:38:40.580,16 May 2017 03:48:16.515,575.934
567,16 May 2017 05:19:32.962,16 May 2017 05:28:42.580,549.618
568,17 May 2017 04:45:41.802,17 May 2017 04:55:52.284,610.482
569,18 May 2017 04:12:04.623,18 May 2017 04:22:33.753,629.130
570,18 May 2017 05:54:44.804,18 May 2017 05:59:48.295,303.491
571,19 May 2017 03:40:29.890,19 May 2017 03:48:48.585,498.695
572,19 May 2017 05:20:04.276,19 May 2017 05:28:10.819,486.542
573,20 May 2017 04:46:01.488,20 May 2017 04:55:40.886,579.399
574,21 May 2017 04:12:16.322,21 May 2017 04:22:39.008,622.686
575,22 May 2017 03:44:02.874,22 May 2017 03:49:10.049,307.175
576,22 May 2017 05:20:48.081,22 May 2017 05:27:21.209,393.129
577,23 May 2017 04:46:27.478,23 May 2017 04:55:17.980,530.502
578,24 May 2017 04:12:32.689,24 May 2017 04:22:34.415,601.726
579,25 May 2017 03:47:26.153,25 May 2017 03:49:21.643,115.490
580,25 May 2017 05:22:00.712,25 May 2017 05:25:57.287,236.575
581,26 May 2017 04:47:02.437,26 May 2017 04:54:40.824,458.386
582,27 May 2017 04:12:54.450,27 May 2017 04:22:19.240,564.790
583,29 May 2017 04:47:53.123,29 May 2017 04:53:42.549,349.427
584,30 May 2017 04:13:23.228,30 May 2017 04:21:51.825,508.597
585,1 Jun 2017 04:49:34.483,1 Jun 2017 04:51:48.046,133.563
586,2 Jun 2017 04:14:02.589,2 Jun 2017 04:21:08.506,425.917
587,5 Jun 2017 04:15:02.881,5 Jun 2017 04:19:58.810,295.930
588,20 Jun 2017 12:14:29.361,20 Jun 2017 12:15:20.381,51.020
589,23 Jun 2017 12:13:40.474,23 Jun 2017 12:16:05.853,145.380
590,24 Jun 2017 11:42:01.451,24 Jun 2017 11:47:10.707,309.256
591,26 Jun 2017 12:13:09.307,26 Jun 2017 12:17:12.663,243.356
592,27 Jun 2017 11:40:54.737,27 Jun 2017 11:48:08.829,434.092
593,28 Jun 2017 11:10:03.269,28 Jun 2017 11:12:48.202,164.933
594,29 Jun 2017 12:12:51.166,29 Jun 2017 12:18:39.779,348.613
595,30 Jun 2017 11:40:13.032,30 Jun 2017 11:48:47.491,514.459
596,1 Jul 2017 11:08:19.048,1 Jul 2017 11:14:20.261,361.214
597,2 Jul 2017 12:12:44.020,2 Jul 2017 12:20:26.085,462.065
598,3 Jul 2017 11:39:46.873,3 Jul 2017 11:49:16.034,569.161
599,4 Jul 2017 11:07:23.223,4 Jul 2017 11:15:09.581,466.358
600,5 Jul 2017 10:36:00.659,5 Jul 2017 10:40:16.855,256.195
601,5 Jul 2017 12:12:46.917,5 Jul 2017 12:22:30.374,583.458
602,6 Jul 2017 11:39:32.840,6 Jul 2017 11:49:37.790,604.950
603,7 Jul 2017 11:06:47.681,7 Jul 2017 11:15:44.113,536.432
604,8 Jul 2017 10:34:41.729,8 Jul 2017 10:41:25.746,404.017
605,8 Jul 2017 12:12:59.576,8 Jul 2017 12:23:25.845,626.269
606,9 Jul 2017 11:39:29.377,9 Jul 2017 11:49:54.283,624.906
607,10 Jul 2017 11:06:26.137,10 Jul 2017 11:16:10.044,583.906
608,11 Jul 2017 10:33:54.352,11 Jul 2017 10:42:08.675,494.322
609,11 Jul 2017 12:13:22.212,11 Jul 2017 12:23:30.315,608.103
610,12 Jul 2017 10:02:12.592,12 Jul 2017 10:07:31.978,319.385
611,12 Jul 2017 11:39:35.805,12 Jul 2017 11:50:06.187,630.382
612,13 Jul 2017 11:06:16.030,13 Jul 2017 11:16:29.853,613.823
613,14 Jul 2017 10:33:24.258,14 Jul 2017 10:42:39.771,555.514
614,14 Jul 2017 12:13:55.619,14 Jul 2017 12:23:29.582,573.963
615,15 Jul 2017 10:01:08.187,15 Jul 2017 10:08:28.424,440.237
616,15 Jul 2017 11:39:52.001,15 Jul 2017 11:50:13.671,621.670
617,16 Jul 2017 09:30:09.908,16 Jul 2017 09:33:14.214,184.306
618,16 Jul 2017 11:06:16.170,16 Jul 2017 11:16:44.704,628.534
619,17 Jul 2017 10:33:07.016,17 Jul 2017 10:43:03.369,596.353
620,17 Jul 2017 12:14:41.462,17 Jul 2017 12:23:22.164,520.701
621,18 Jul 2017 10:00:27.781,18 Jul 2017 10:09:06.413,518.632
622,18 Jul 2017 11:40:18.388,18 Jul 2017 11:50:16.437,598.048
623,19 Jul 2017 09:28:31.739,19 Jul 2017 09:34:40.851,369.113
624,19 Jul 2017 11:06:26.101,19 Jul 2017 11:16:55.073,628.972
625,20 Jul 2017 10:33:00.686,20 Jul 2017 10:43:21.359,620.674
626,20 Jul 2017 12:15:43.257,20 Jul 2017 12:23:04.806,441.549
627,21 Jul 2017 10:00:02.614,21 Jul 2017 10:09:34.570,571.956
628,21 Jul 2017 11:40:55.999,21 Jul 2017 11:50:13.591,557.592
629,22 Jul 2017 09:27:37.661,22 Jul 2017 09:35:29.024,471.363
630,22 Jul 2017 11:06:45.892,22 Jul 2017 11:17:00.974,615.081
631,23 Jul 2017 08:56:11.537,23 Jul 2017 09:00:39.451,267.913
632,23 Jul 2017 10:33:04.379,23 Jul 2017 10:43:34.623,630.244
633,23 Jul 2017 12:17:10.401,23 Jul 2017 12:22:28.424,318.023
634,24 Jul 2017 09:59:49.441,24 Jul 2017 10:09:56.058,606.617
635,24 Jul 2017 11:41:46.993,24 Jul 2017 11:50:03.199,496.206
636,25 Jul 2017 09:27:03.260,25 Jul 2017 09:36:03.011,539.751
637,25 Jul 2017 11:07:16.150,25 Jul 2017 11:17:01.912,585.762
638,26 Jul 2017 08:54:55.647,26 Jul 2017 09:01:45.893,410.246
639,26 Jul 2017 10:33:17.823,26 Jul 2017 10:43:43.455,625.632
640,27 Jul 2017 08:25:03.818,27 Jul 2017 08:25:28.038,24.220
641,27 Jul 2017 09:59:46.774,27 Jul 2017 10:10:12.329,625.555
642,27 Jul 2017 11:42:56.134,27 Jul 2017 11:49:40.768,404.634
643,28 Jul 2017 09:26:42.634,28 Jul 2017 09:36:28.592,585.957
644,28 Jul 2017 11:07:58.230,28 Jul 2017 11:16:56.713,538.483
645,29 Jul 2017 08:54:09.681,29 Jul 2017 09:02:27.982,498.301
646,29 Jul 2017 10:33:41.268,29 Jul 2017 10:43:47.696,606.428
647,30 Jul 2017 08:22:25.480,30 Jul 2017 08:27:53.300,327.820
648,30 Jul 2017 09:59:53.973,30 Jul 2017 10:10:24.032,630.059
649,30 Jul 2017 11:44:38.819,30 Jul 2017 11:48:51.238,252.420
650,31 Jul 2017 09:26:33.344,31 Jul 2017 09:36:48.144,614.800
651,31 Jul 2017 11:08:54.921,31 Jul 2017 11:16:42.812,467.891
652,1 Aug 2017 08:53:40.601,1 Aug 2017 09:02:58.622,558.021
653,1 Aug 2017 10:34:15.553,1 Aug 2017 10:43:46.662,571.110
654,2 Aug 2017 08:21:23.110,2 Aug 2017 08:28:48.271,445.161
655,2 Aug 2017 10:00:10.951,2 Aug 2017 10:10:31.303,620.352
656,3 Aug 2017 07:50:19.432,3 Aug 2017 07:53:39.014,199.581
657,3 Aug 2017 09:26:34.247,3 Aug 2017 09:37:02.776,628.529
658,3 Aug 2017 11:10:12.980,3 Aug 2017 11:16:13.768,360.789
659,4 Aug 2017 08:53:24.213,4 Aug 2017 09:03:21.911,597.698
660,4 Aug 2017 10:35:02.423,4 Aug 2017 10:43:38.800,516.377
661,5 Aug 2017 08:20:43.892,5 Aug 2017 08:29:25.612,521.720
662,5 Aug 2017 10:00:38.147,5 Aug 2017 10:10:33.805,595.658
663,6 Aug 2017 07:48:45.962,6 Aug 2017 07:55:01.494,375.531
664,6 Aug 2017 09:26:44.933,6 Aug 2017 09:37:12.938,628.005
665,6 Aug 2017 11:12:23.609,6 Aug 2017 11:14:58.719,155.110
666,7 Aug 2017 08:53:18.646,7 Aug 2017 09:03:39.662,621.016
667,7 Aug 2017 10:36:05.579,7 Aug 2017 10:43:20.665,435.085
668,8 Aug 2017 08:20:19.636,8 Aug 2017 08:29:53.385,573.749
669,8 Aug 2017 10:01:16.659,8 Aug 2017 10:10:30.612,553.953
670,9 Aug 2017 07:47:53.423,9 Aug 2017 07:55:48.664,475.241
671,9 Aug 2017 09:27:05.485,9 Aug 2017 09:37:18.604,613.118
672,10 Aug 2017 07:16:24.194,10 Aug 2017 07:21:01.735,277.541
673,10 Aug 2017 08:53:23.064,10 Aug 2017 09:03:52.712,629.647
674,10 Aug 2017 10:37:35.200,10 Aug 2017 10:42:42.384,307.184
675,11 Aug 2017 08:20:07.252,11 Aug 2017 08:30:14.604,607.352
676,11 Aug 2017 10:02:08.742,11 Aug 2017 10:10:19.684,490.941
677,12 Aug 2017 07:47:20.042,12 Aug 2017 07:56:22.141,542.100
678,12 Aug 2017 09:27:36.551,12 Aug 2017 09:37:19.257,582.707
679,13 Aug 2017 07:15:10.854,13 Aug 2017 07:22:06.151,415.298
680,13 Aug 2017 08:53:37.231,13 Aug 2017 09:04:01.338,624.107
681,14 Aug 2017 06:44:53.572,14 Aug 2017 06:46:13.263,79.691
682,14 Aug 2017 08:20:05.301,14 Aug 2017 08:30:30.662,625.362
683,14 Aug 2017 10:03:19.457,14 Aug 2017 10:09:56.236,396.779
684,15 Aug 2017 07:47:00.238,15 Aug 2017 07:56:47.409,587.171
685,15 Aug 2017 09:28:19.554,15 Aug 2017 09:37:13.669,534.115
686,16 Aug 2017 07:14:26.123,16 Aug 2017 07:22:47.514,501.390
687,16 Aug 2017 08:54:01.426,16 Aug 2017 09:04:05.345,603.919
688,17 Aug 2017 06:42:39.662,17 Aug 2017 06:48:14.621,334.959
689,17 Aug 2017 08:20:13.190,17 Aug 2017 08:30:42.172,628.983
690,17 Aug 2017 10:05:05.965,17 Aug 2017 10:09:03.453,237.487
691,18 Aug 2017 07:46:51.669,18 Aug 2017 07:57:06.733,615.064
692,18 Aug 2017 09:29:17.424,18 Aug 2017 09:36:59.131,461.707
693,19 Aug 2017 07:13:57.940,19 Aug 2017 07:23:17.759,559.819
694,19 Aug 2017 08:54:36.523,19 Aug 2017 09:04:04.015,567.492
695,20 Aug 2017 06:41:39.059,20 Aug 2017 06:49:08.342,449.282
696,20 Aug 2017 08:20:30.864,20 Aug 2017 08:30:49.241,618.377
697,21 Aug 2017 06:10:30.721,21 Aug 2017 06:14:03.253,212.532
698,21 Aug 2017 07:46:53.255,21 Aug 2017 07:57:21.179,627.925
699,21 Aug 2017 09:30:37.407,21 Aug 2017 09:36:28.710,351.304
700,22 Aug 2017 07:13:42.297,22 Aug 2017 07:23:40.796,598.498
701,22 Aug 2017 08:55:24.348,22 Aug 2017 09:03:55.718,511.369
702,23 Aug 2017 06:41:00.880,23 Aug 2017 06:49:45.141,524.261
703,23 Aug 2017 08:20:58.796,23 Aug 2017 08:30:51.522,592.727
704,24 Aug 2017 06:09:01.114,24 Aug 2017 06:15:22.391,381.277
705,24 Aug 2017 07:47:04.603,24 Aug 2017 07:57:31.175,626.572
706,24 Aug 2017 09:32:57.132,24 Aug 2017 09:35:05.129,127.997
707,25 Aug 2017 07:13:37.412,25 Aug 2017 07:23:58.362,620.951
708,25 Aug 2017 08:56:28.815,25 Aug 2017 09:03:36.809,427.994
709,26 Aug 2017 06:40:37.432,26 Aug 2017 06:50:12.609,575.178
710,26 Aug 2017 08:21:38.130,26 Aug 2017 08:30:48.020,549.890
711,27 Aug 2017 06:08:09.941,27 Aug 2017 06:16:08.704,478.763
712,27 Aug 2017 07:47:25.833,27 Aug 2017 07:57:36.668,610.835
713,28 Aug 2017 05:36:37.752,28 Aug 2017 05:41:24.249,286.497
714,28 Aug 2017 07:13:42.478,28 Aug 2017 07:24:11.265,628.787
715,28 Aug 2017 08:58:01.008,28 Aug 2017 09:02:56.520,295.512
716,29 Aug 2017 06:40:25.737,29 Aug 2017 06:50:33.634,607.897
717,29 Aug 2017 08:22:31.228,29 Aug 2017 08:30:36.612,485.384
718,30 Aug 2017 06:07:37.475,30 Aug 2017 06:16:41.776,544.302
719,30 Aug 2017 07:47:57.627,30 Aug 2017 07:57:37.108,579.480
720,31 Aug 2017 05:35:26.689,31 Aug 2017 05:42:26.911,420.222
721,31 Aug 2017 07:13:57.285,31 Aug 2017 07:24:19.753,622.467
722,1 Sep 2017 05:04:56.364,1 Sep 2017 05:06:46.569,110.205
723,1 Sep 2017 06:40:24.436,1 Sep 2017 06:50:49.552,625.116
724,1 Sep 2017 08:23:43.464,1 Sep 2017 08:30:12.197,388.734
725,2 Sep 2017 06:07:18.410,2 Sep 2017 06:17:06.816,588.406
726,2 Sep 2017 07:48:41.476,2 Sep 2017 07:57:31.205,529.729
727,3 Sep 2017 05:34:43.097,3 Sep 2017 05:43:07.663,504.566
728,3 Sep 2017 07:14:22.145,3 Sep 2017 07:24:23.613,601.468
729,4 Sep 2017 05:02:54.358,4 Sep 2017 05:08:36.570,342.212
730,4 Sep 2017 06:40:32.946,4 Sep 2017 06:51:00.957,628.010
731,4 Sep 2017 08:25:34.033,4 Sep 2017 08:29:15.936,221.903
732,5 Sep 2017 06:07:10.503,5 Sep 2017 06:17:25.998,615.495
733,5 Sep 2017 07:49:40.450,5 Sep 2017 07:57:16.114,455.664
734,6 Sep 2017 05:34:15.743,6 Sep 2017 05:43:37.608,561.865
735,6 Sep 2017 07:14:57.982,6 Sep 2017 07:24:22.077,564.095
736,7 Sep 2017 05:01:55.419,7 Sep 2017 05:09:29.172,453.752
737,7 Sep 2017 06:40:51.253,7 Sep 2017 06:51:07.923,616.670
738,8 Sep 2017 04:30:42.534,8 Sep 2017 04:34:28.143,225.610
739,8 Sep 2017 06:07:12.704,8 Sep 2017 06:17:40.356,627.651
740,8 Sep 2017 07:51:02.303,8 Sep 2017 07:56:44.412,342.109
741,9 Sep 2017 05:34:00.799,9 Sep 2017 05:44:00.478,599.679
742,9 Sep 2017 07:15:46.699,9 Sep 2017 07:24:13.451,506.751
743,10 Sep 2017 05:01:18.241,10 Sep 2017 05:10:05.520,527.279
744,10 Sep 2017 06:41:19.857,10 Sep 2017 06:51:10.073,590.216
745,11 Sep 2017 04:29:16.566,11 Sep 2017 04:35:44.214,387.648
746,11 Sep 2017 06:07:24.668,11 Sep 2017 06:17:50.277,625.609
747,11 Sep 2017 07:53:33.760,11 Sep 2017 07:55:09.722,95.962
748,12 Sep 2017 05:33:56.551,12 Sep 2017 05:44:17.954,621.402
749,12 Sep 2017 07:16:52.412,12 Sep 2017 07:23:53.889,421.477
750,13 Sep 2017 05:00:55.572,13 Sep 2017 05:10:32.766,577.194
751,13 Sep 2017 06:41:59.962,13 Sep 2017 06:51:06.372,546.410
752,14 Sep 2017 04:28:26.748,14 Sep 2017 04:36:29.747,482.999
753,14 Sep 2017 06:07:46.534,14 Sep 2017 06:17:55.687,609.154
754,15 Sep 2017 03:56:51.496,15 Sep 2017 04:01:47.882,296.387
755,15 Sep 2017 05:34:02.230,15 Sep 2017 05:44:30.799,628.568
756,15 Sep 2017 07:18:27.135,15 Sep 2017 07:23:11.699,284.564
757,16 Sep 2017 05:00:44.559,16 Sep 2017 05:10:53.677,609.118
758,16 Sep 2017 06:42:54.029,16 Sep 2017 06:50:54.597,480.568
759,17 Sep 2017 04:27:55.200,17 Sep 2017 04:37:02.482,547.282
760,17 Sep 2017 06:08:19.036,17 Sep 2017 06:17:56.015,576.979
761,18 Sep 2017 03:55:42.743,18 Sep 2017 04:02:48.844,426.102
762,18 Sep 2017 05:34:17.664,18 Sep 2017 05:44:39.237,621.574
763,19 Sep 2017 03:25:01.731,19 Sep 2017 03:27:18.711,136.980
764,19 Sep 2017 05:00:43.891,19 Sep 2017 05:11:09.542,625.651
765,19 Sep 2017 06:44:07.736,19 Sep 2017 06:50:29.352,381.616
766,20 Sep 2017 04:27:36.887,20 Sep 2017 04:37:27.357,590.469
767,20 Sep 2017 06:09:03.709,20 Sep 2017 06:17:49.898,526.189
768,21 Sep 2017 03:55:00.332,21 Sep 2017 04:03:29.016,508.684
769,21 Sep 2017 05:34:43.195,21 Sep 2017 05:44:43.034,599.839
770,22 Sep 2017 03:23:09.203,22 Sep 2017 03:28:59.865,350.663
771,22 Sep 2017 05:00:53.033,22 Sep 2017 05:11:20.910,627.877
772,22 Sep 2017 06:46:02.446,22 Sep 2017 06:49:29.630,207.184
773,23 Sep 2017 04:27:29.655,23 Sep 2017 04:37:46.465,616.810
774,23 Sep 2017 06:10:03.772,23 Sep 2017 06:17:34.371,450.599
775,24 Sep 2017 03:54:33.850,24 Sep 2017 04:03:58.701,564.851
776,24 Sep 2017 05:35:19.780,24 Sep 2017 05:44:41.382,561.602
777,25 Sep 2017 03:22:12.024,25 Sep 2017 03:29:51.333,459.309
778,25 Sep 2017 05:01:11.993,25 Sep 2017 05:11:27.843,615.850
779,26 Sep 2017 02:50:54.495,26 Sep 2017 02:54:54.500,240.005
780,26 Sep 2017 04:27:32.519,26 Sep 2017 04:38:00.783,628.264
781,26 Sep 2017 06:11:27.473,26 Sep 2017 06:17:01.509,334.037
782,27 Sep 2017 03:54:19.658,27 Sep 2017 04:04:21.449,601.791
783,27 Sep 2017 05:36:09.405,27 Sep 2017 05:44:32.507,503.102
784,28 Sep 2017 03:21:35.929,28 Sep 2017 03:30:27.243,531.315
785,28 Sep 2017 05:01:41.307,28 Sep 2017 05:11:29.925,588.619
786,29 Sep 2017 02:49:32.264,29 Sep 2017 02:56:07.492,395.228
787,29 Sep 2017 04:27:45.133,29 Sep 2017 04:38:10.677,625.544
788,29 Sep 2017 06:14:16.459,29 Sep 2017 06:15:10.022,53.563
789,30 Sep 2017 03:54:16.105,30 Sep 2017 04:04:38.868,622.763
790,30 Sep 2017 05:37:16.383,30 Sep 2017 05:44:12.379,415.996
791,1 Oct 2017 03:21:14.111,1 Oct 2017 03:30:54.277,580.166
792,1 Oct 2017 05:02:22.230,1 Oct 2017 05:11:26.079,543.850
793,1 Oct 2017 13:48:51.374,1 Oct 2017 13:53:51.477,300.102
794,2 Oct 2017 02:48:43.929,2 Oct 2017 02:56:52.209,488.281
795,2 Oct 2017 04:28:07.702,2 Oct 2017 04:38:16.053,608.352
796,3 Oct 2017 02:17:05.513,3 Oct 2017 02:22:13.073,307.560
797,3 Oct 2017 03:54:22.462,3 Oct 2017 04:04:51.682,629.220
798,3 Oct 2017 05:38:53.674,3 Oct 2017 05:43:28.359,274.685
799,4 Oct 2017 03:21:03.852,4 Oct 2017 03:31:15.089,611.237
800,4 Oct 2017 05:03:17.321,4 Oct 2017 05:11:13.986,476.665
801,4 Oct 2017 13:48:12.192,4 Oct 2017 13:55:23.259,431.067
802,5 Oct 2017 02:48:13.399,5 Oct 2017 02:57:24.588,551.190
803,5 Oct 2017 04:28:40.973,5 Oct 2017 04:38:16.289,575.317
804,5 Oct 2017 13:16:40.391,5 Oct 2017 13:18:58.770,138.379
805,6 Oct 2017 02:15:59.227,6 Oct 2017 02:23:12.246,433.019
806,6 Oct 2017 03:54:38.602,6 Oct 2017 04:05:00.088,621.486
807,7 Oct 2017 01:45:08.927,7 Oct 2017 01:47:50.965,162.038
808,7 Oct 2017 03:21:03.909,7 Oct 2017 03:31:30.897,626.988
809,7 Oct 2017 05:04:32.561,7 Oct 2017 05:10:47.948,375.386
810,7 Oct 2017 13:47:54.015,7 Oct 2017 13:56:27.768,513.753
811,8 Oct 2017 02:47:55.931,8 Oct 2017 02:57:49.281,593.350
812,8 Oct 2017 04:29:26.551,8 Oct 2017 04:38:09.978,523.427
813,8 Oct 2017 13:15:20.555,8 Oct 2017 13:21:15.560,355.005
814,9 Oct 2017 02:15:18.126,9 Oct 2017 02:23:51.791,513.665
815,9 Oct 2017 03:55:04.880,9 Oct 2017 04:05:03.820,598.940
816,9 Oct 2017 14:21:01.140,9 Oct 2017 14:23:26.979,145.839
817,10 Oct 2017 01:43:24.571,10 Oct 2017 01:49:24.642,360.070
818,10 Oct 2017 03:21:13.766,10 Oct 2017 03:31:42.222,628.456
819,10 Oct 2017 05:06:31.710,10 Oct 2017 05:09:44.558,192.848
820,10 Oct 2017 13:47:46.392,10 Oct 2017 13:57:15.774,569.382
821,11 Oct 2017 02:47:49.476,11 Oct 2017 02:58:08.291,618.815
822,11 Oct 2017 04:30:27.794,11 Oct 2017 04:37:54.009,446.215
823,11 Oct 2017 13:14:51.153,11 Oct 2017 13:22:35.401,464.248
824,12 Oct 2017 02:14:52.628,12 Oct 2017 02:24:21.173,568.545
825,12 Oct 2017 03:55:42.309,12 Oct 2017 04:05:02.034,559.725
826,12 Oct 2017 12:42:45.678,12 Oct 2017 12:46:48.453,242.775
827,12 Oct 2017 14:21:08.834,12 Oct 2017 14:27:45.199,396.364
828,13 Oct 2017 01:42:29.298,13 Oct 2017 01:50:14.905,465.607
829,13 Oct 2017 03:21:33.477,13 Oct 2017 03:31:49.097,615.620
830,13 Oct 2017 13:47:45.738,13 Oct 2017 13:57:51.115,605.377

"Access","Start Time (UTCG)","Stop Time (UTCG)","Duration (sec)"
1,14 Oct 2016 05:58:51.593,14 Oct 2016 06:08:30.427,578.834
2,14 Oct 2016 07:39:58.634,14 Oct 2016 07:49:02.332,543.698
3,15 Oct 2016 05:26:18.261,15 Oct 2016 05:34:24.287,486.026
4,15 Oct 2016 07:05:40.583,15 Oct 2016 07:15:48.502,607.919
5,16 Oct 2016 04:54:37.595,16 Oct 2016 04:59:40.214,302.619
6,16 Oct 2016 06:31:51.911,16 Oct 2016 06:42:20.258,628.347
7,16 Oct 2016 08:16:20.928,16 Oct 2016 08:20:57.834,276.905
8,17 Oct 2016 05:58:29.973,17 Oct 2016 06:08:39.702,609.728
9,17 Oct 2016 07:40:41.580,17 Oct 2016 07:48:39.084,477.503
10,18 Oct 2016 05:25:36.380,18 Oct 2016 05:34:45.063,548.683
11,18 Oct 2016 07:06:01.904,18 Oct 2016 07:15:37.359,575.455
12,19 Oct 2016 04:53:19.557,19 Oct 2016 05:00:28.120,428.563
13,19 Oct 2016 06:31:56.199,19 Oct 2016 06:42:17.139,620.939
14,20 Oct 2016 04:22:31.635,20 Oct 2016 04:24:57.255,145.620
15,20 Oct 2016 05:58:18.244,20 Oct 2016 06:08:43.866,625.622
16,20 Oct 2016 07:41:43.838,20 Oct 2016 07:48:02.174,378.336
17,21 Oct 2016 05:25:07.152,21 Oct 2016 05:34:58.048,590.896
18,21 Oct 2016 07:06:34.987,21 Oct 2016 07:15:19.665,524.678
19,22 Oct 2016 04:52:26.555,22 Oct 2016 05:00:56.047,509.493
20,22 Oct 2016 06:32:10.172,22 Oct 2016 06:42:09.270,599.098
21,23 Oct 2016 04:20:31.331,23 Oct 2016 04:26:23.307,351.976
22,23 Oct 2016 05:58:15.900,23 Oct 2016 06:08:43.454,627.554
23,23 Oct 2016 07:43:27.054,23 Oct 2016 07:46:50.290,203.237
24,24 Oct 2016 05:24:48.535,24 Oct 2016 05:35:05.230,616.695
25,24 Oct 2016 07:07:23.002,24 Oct 2016 07:14:52.500,449.499
26,25 Oct 2016 04:51:48.834,25 Oct 2016 05:01:13.611,564.777
27,25 Oct 2016 06:32:34.769,25 Oct 2016 06:41:55.866,561.097
28,26 Oct 2016 04:19:23.246,26 Oct 2016 04:27:02.285,459.038
29,26 Oct 2016 05:58:22.949,26 Oct 2016 06:08:38.512,615.563
30,27 Oct 2016 03:48:02.367,27 Oct 2016 03:52:01.102,238.735
31,27 Oct 2016 05:24:39.567,27 Oct 2016 05:35:07.543,627.976
32,27 Oct 2016 07:08:33.997,27 Oct 2016 07:14:08.100,334.102
33,28 Oct 2016 04:51:22.910,28 Oct 2016 05:01:24.212,601.302
34,28 Oct 2016 06:33:11.913,28 Oct 2016 06:41:35.205,503.293
35,29 Oct 2016 04:18:35.541,29 Oct 2016 04:27:25.884,530.343
36,29 Oct 2016 05:58:39.919,29 Oct 2016 06:08:28.638,588.719
37,30 Oct 2016 03:46:28.580,30 Oct 2016 03:53:01.690,393.110
38,30 Oct 2016 05:24:39.943,30 Oct 2016 05:35:05.343,625.401
39,30 Oct 2016 07:11:04.307,30 Oct 2016 07:12:10.497,66.190
40,31 Oct 2016 04:51:07.193,31 Oct 2016 05:01:29.403,622.209
41,31 Oct 2016 06:34:05.749,31 Oct 2016 06:41:03.412,417.662
42,1 Nov 2016 04:18:01.632,1 Nov 2016 04:27:40.578,578.946
43,1 Nov 2016 05:59:07.997,1 Nov 2016 06:08:12.801,544.804
44,1 Nov 2016 14:45:38.246,1 Nov 2016 14:50:33.571,295.325
45,2 Nov 2016 03:45:28.146,2 Nov 2016 03:53:34.027,485.881
46,2 Nov 2016 05:24:49.818,2 Nov 2016 05:34:58.539,608.721
47,3 Nov 2016 03:13:47.496,3 Nov 2016 03:18:49.386,301.890
48,3 Nov 2016 04:51:00.965,3 Nov 2016 05:01:29.905,628.940
49,3 Nov 2016 06:35:28.450,3 Nov 2016 06:40:08.603,280.154
50,4 Nov 2016 04:17:38.856,4 Nov 2016 04:27:48.963,610.107
51,4 Nov 2016 05:59:49.614,4 Nov 2016 06:07:48.801,479.188
52,4 Nov 2016 14:44:46.112,4 Nov 2016 14:51:53.150,427.037
53,5 Nov 2016 03:44:45.104,5 Nov 2016 03:53:53.930,548.826
54,5 Nov 2016 05:25:09.904,5 Nov 2016 05:34:46.556,576.651
55,5 Nov 2016 14:13:17.571,5 Nov 2016 14:15:16.617,119.045
56,6 Nov 2016 03:12:28.192,6 Nov 2016 03:19:36.540,428.348
57,6 Nov 2016 04:51:04.076,6 Nov 2016 05:01:25.909,621.833
58,7 Nov 2016 02:41:40.847,7 Nov 2016 02:44:04.566,143.718
59,7 Nov 2016 04:17:25.965,7 Nov 2016 04:27:52.239,626.274
60,7 Nov 2016 06:00:50.347,7 Nov 2016 06:07:11.330,380.983
61,7 Nov 2016 14:44:14.993,7 Nov 2016 14:52:45.193,510.199
62,8 Nov 2016 03:44:14.730,8 Nov 2016 03:54:06.029,591.299
63,8 Nov 2016 05:25:41.710,8 Nov 2016 05:34:28.070,526.360
64,8 Nov 2016 14:11:39.170,8 Nov 2016 14:17:26.361,347.192
65,9 Nov 2016 03:11:34.017,9 Nov 2016 03:20:03.612,509.595
66,9 Nov 2016 04:51:16.848,9 Nov 2016 05:01:17.184,600.336
67,10 Nov 2016 02:39:38.801,10 Nov 2016 02:45:30.346,351.545
68,10 Nov 2016 04:17:22.460,10 Nov 2016 04:27:50.946,628.486
69,10 Nov 2016 06:02:30.951,10 Nov 2016 06:05:59.965,209.014
70,10 Nov 2016 14:43:54.249,10 Nov 2016 14:53:20.656,566.407
71,11 Nov 2016 03:43:54.968,11 Nov 2016 03:54:12.317,617.349
72,11 Nov 2016 05:26:28.343,11 Nov 2016 05:34:00.217,451.874
73,11 Nov 2016 14:10:55.938,11 Nov 2016 14:18:34.173,458.235
74,12 Nov 2016 03:10:55.157,12 Nov 2016 03:20:20.289,565.132
75,12 Nov 2016 04:51:40.214,12 Nov 2016 05:01:02.952,562.739
76,12 Nov 2016 13:38:51.215,12 Nov 2016 13:42:37.093,225.878
77,13 Nov 2016 02:38:29.513,13 Nov 2016 02:46:08.512,458.999
78,13 Nov 2016 04:17:28.346,13 Nov 2016 04:27:45.128,616.783
79,13 Nov 2016 14:43:40.253,13 Nov 2016 14:53:43.421,603.168
80,14 Nov 2016 02:07:08.905,14 Nov 2016 02:11:06.561,237.656
81,14 Nov 2016 03:43:44.867,14 Nov 2016 03:54:13.732,628.865
82,14 Nov 2016 05:27:37.636,14 Nov 2016 05:33:15.443,337.807
83,14 Nov 2016 14:10:28.567,14 Nov 2016 14:19:19.714,531.148
84,15 Nov 2016 03:10:28.110,15 Nov 2016 03:20:29.990,601.880
85,15 Nov 2016 04:52:16.061,15 Nov 2016 05:00:41.527,505.466
86,15 Nov 2016 13:37:43.551,15 Nov 2016 13:44:13.140,389.588
87,15 Nov 2016 15:17:05.640,15 Nov 2016 15:19:17.565,131.924
88,16 Nov 2016 02:37:40.664,16 Nov 2016 02:46:31.228,530.563
89,16 Nov 2016 04:17:44.116,16 Nov 2016 04:27:34.397,590.281
90,16 Nov 2016 14:43:31.377,16 Nov 2016 14:53:55.310,623.933
91,17 Nov 2016 02:05:33.743,17 Nov 2016 02:12:06.508,392.765
92,17 Nov 2016 03:43:44.089,17 Nov 2016 03:54:10.641,626.553
93,17 Nov 2016 05:29:59.464,17 Nov 2016 05:31:24.238,84.773
94,17 Nov 2016 14:10:09.993,17 Nov 2016 14:19:50.332,580.338
95,18 Nov 2016 03:10:11.262,18 Nov 2016 03:20:34.275,623.013
96,18 Nov 2016 04:53:08.445,18 Nov 2016 05:00:09.111,420.666
97,18 Nov 2016 13:37:06.591,18 Nov 2016 13:45:11.843,485.252
98,18 Nov 2016 15:17:08.505,18 Nov 2016 15:23:43.462,394.957
99,19 Nov 2016 02:37:05.634,19 Nov 2016 02:46:45.016,579.382
100,19 Nov 2016 04:18:10.956,19 Nov 2016 04:27:17.737,546.781
101,19 Nov 2016 13:04:43.434,19 Nov 2016 13:09:36.373,292.939
102,19 Nov 2016 14:43:26.875,19 Nov 2016 14:53:57.219,630.344
103,20 Nov 2016 02:04:32.138,20 Nov 2016 02:12:37.989,485.851
104,20 Nov 2016 03:43:52.800,20 Nov 2016 03:54:02.951,610.151
105,20 Nov 2016 14:09:57.481,20 Nov 2016 14:20:09.003,611.522
106,21 Nov 2016 01:32:51.734,21 Nov 2016 01:37:52.632,300.897
107,21 Nov 2016 03:10:03.909,21 Nov 2016 03:20:33.857,629.948
108,21 Nov 2016 04:54:29.124,21 Nov 2016 04:59:14.248,285.123
109,21 Nov 2016 13:36:42.247,21 Nov 2016 13:45:51.609,549.362
110,21 Nov 2016 15:17:16.184,21 Nov 2016 15:26:54.463,578.279
111,22 Nov 2016 02:36:41.737,22 Nov 2016 02:46:52.477,610.740
112,22 Nov 2016 04:18:51.250,22 Nov 2016 04:26:52.990,481.739
113,22 Nov 2016 13:03:49.960,22 Nov 2016 13:10:55.307,425.347
114,22 Nov 2016 14:43:26.525,22 Nov 2016 14:53:49.454,622.929
115,23 Nov 2016 02:03:47.967,23 Nov 2016 02:12:56.988,549.021
116,23 Nov 2016 03:44:11.694,23 Nov 2016 03:53:50.099,578.405
117,23 Nov 2016 12:32:24.428,23 Nov 2016 12:34:14.920,110.491
118,23 Nov 2016 14:09:49.768,23 Nov 2016 14:20:17.180,627.412
119,24 Nov 2016 01:31:31.136,24 Nov 2016 01:38:39.045,427.909
120,24 Nov 2016 03:10:05.875,24 Nov 2016 03:20:28.948,623.073
121,24 Nov 2016 13:36:25.543,24 Nov 2016 13:46:17.707,592.164
122,24 Nov 2016 15:17:29.906,24 Nov 2016 15:26:18.701,528.795
123,25 Nov 2016 01:00:45.120,25 Nov 2016 01:03:05.297,140.177
124,25 Nov 2016 02:36:27.735,25 Nov 2016 02:46:54.820,627.085
125,25 Nov 2016 04:19:50.440,25 Nov 2016 04:26:14.976,384.537
126,25 Nov 2016 13:03:17.711,25 Nov 2016 13:11:46.482,508.771
127,25 Nov 2016 14:43:30.559,25 Nov 2016 14:53:31.854,601.295
128,26 Nov 2016 02:03:16.479,26 Nov 2016 02:13:08.152,591.673
129,26 Nov 2016 03:44:42.253,26 Nov 2016 03:53:30.784,528.531
130,26 Nov 2016 12:30:42.197,26 Nov 2016 12:36:26.488,344.291
131,26 Nov 2016 14:09:46.301,26 Nov 2016 14:20:15.536,629.236
132,27 Nov 2016 01:30:35.804,27 Nov 2016 01:39:05.227,509.423
133,27 Nov 2016 03:10:17.486,27 Nov 2016 03:20:19.318,601.832
134,27 Nov 2016 13:36:14.368,27 Nov 2016 13:46:32.449,618.081
135,27 Nov 2016 15:17:52.339,27 Nov 2016 15:25:28.669,456.330
136,28 Nov 2016 00:58:40.862,28 Nov 2016 01:04:31.235,350.373
137,28 Nov 2016 02:36:23.105,28 Nov 2016 02:46:52.588,629.482
138,28 Nov 2016 04:21:28.269,28 Nov 2016 04:25:04.285,216.016
139,28 Nov 2016 13:02:55.882,28 Nov 2016 13:12:21.023,565.141
140,28 Nov 2016 14:43:39.695,28 Nov 2016 14:53:03.681,563.986
141,29 Nov 2016 02:02:55.605,29 Nov 2016 02:13:13.485,617.880
142,29 Nov 2016 03:45:27.517,29 Nov 2016 03:53:02.198,454.681
143,29 Nov 2016 12:29:57.608,29 Nov 2016 12:37:33.641,456.033
144,29 Nov 2016 14:09:47.006,29 Nov 2016 14:20:04.227,617.221
145,30 Nov 2016 01:29:55.816,30 Nov 2016 01:39:20.970,565.154
146,30 Nov 2016 03:10:39.652,30 Nov 2016 03:20:04.199,564.547
147,30 Nov 2016 11:57:54.226,30 Nov 2016 12:01:34.340,220.115
148,30 Nov 2016 13:36:07.746,30 Nov 2016 13:46:36.994,629.247
